stop_id,stop_code,stop_name,stop_lat,stop_lon,location_type,wheelchair_boarding,parent_station
ABPRA,ABPRA|ABPRA,Abbé Prévost,45.793448,3.075307018,0,1,ABPR
ABPRR,ABPRR|ABPRR,Abbé Prévost,45.793497,3.076012018,0,1,ABPR
AEROA,AEROA|AEROA,Aéroport,45.79175352,3.161188981,0,1,AERO
AEROR,AEROR|AEROR,Aéroport,45.79170268,3.161605614,0,1,AERO
AGRIA,AGRIA|AGRIA,Agriculture,45.77968797,3.128694678,0,1,AGRI
ALVAR,ALVAR|ALVAR,Alexandre Varenne,45.77674639,3.077995795,0,1,ALVA
ANFRR,ANFRR|ANFRR,Anatole France,45.77896,3.112720018,0,1,ANFR
ARAGA,ARAGA|ARAGA,Arago,45.7747881,3.10352659,0,1,ARAG
ARAGR,ARAGR|ARAGR,Arago,45.77484792,3.103990288,0,1,ARAG
NARVA,NARVA|NARVA,Narvik,45.8148997,3.105835758,0,1,NARV
ARTIR,ARTIR|ARTIR,Artière,45.75405946,3.116488814,0,1,ARTI
AUBGA,AUBGA|AUBGA,"Agrippa d'Aubigné",45.77826914,3.108508604,0,1,AUBG
AUBGR,AUBGR|AUBGR,"Agrippa d'Aubigné",45.77821735,3.108589049,0,1,AUBG
AUBTA,AUBTA|AUBTA,Aubiat,45.83199885,3.096578139,0,1,AUBT
AUBTR,AUBTR|AUBTR,Aubiat,45.83176711,3.096733707,0,1,AUBT
AUPRA,AUPRA|AUPRA,AUBIÈRE Pl. des Ramacles,45.74954669,3.112042568,0,1,AUPR
AUPRR,AUPRR|AUPRR,AUBIÈRE Pl. des Ramacles,45.74997274,3.112883906,0,1,AUPR
AUSER,AUSER|AUSER,AULNAT St Exupéry,45.79557,3.171530018,0,1,AUSE
AUSEA,AUSEA|AUSEA,AULNAT St Exupéry,45.79583,3.172120009,0,1,AUSE
AUZOA,AUZOA|AUZOA,Auzon,45.72533732,3.19702408,0,1,AUZO
AUZOR,AUZOR|AUZOR,Auzon,45.72532685,3.197216606,0,1,AUZO
AVIAR,AVIAR|AVIAR,Aviation,45.793821,3.158603818,0,1,AVIA
AVPOR,AVPOR|AVPOR,Av. du Pont,45.73525359,3.207354827,0,1,AVPO
BAISA,BAISA|BAISA,"Barrière d'Issoire",45.7728358,3.092892478,0,1,BAIS
BALLA,BALLA|BALLA,Ballainvilliers,45.77528807,3.086767458,0,1,BALL
BALLB,BALLB|BALLB,Ballainvilliers,45.77582224,3.086096066,0,1,BALL
BALLR,BALLR|BALLR,Ballainvilliers,45.77525183,3.086805538,0,1,BALL
BALLS,BALLS|BALLS,Ballainvilliers,45.7757998,3.086181897,0,1,BALL
BARGA,BARGA|BARGA,Bargoin,45.76400952,3.060107236,0,1,BARG
BARGR,BARGR|BARGR,Bargoin,45.76327768,3.060586093,0,1,BARG
BARRA,BARRA|BARRA,Barrieu,45.76457739,3.054330003,0,1,BARR
BARRR,BARRR|BARRR,Barrieu,45.7645442,3.054537195,0,1,BARR
BARSA,BARSA|BARSA,Barreiras,45.76324218,3.049247901,0,1,BARS
BARSR,BARSR|BARSR,Barreiras,45.76324218,3.049247901,0,1,BARS
BATIA,BATIA|BATIA,Batignolle,45.83743,3.144980018,0,1,BATI
BATIR,BATIR|BATIR,Batignolle,45.83748,3.144830018,0,1,BATI
BEAPA,BEAPA|BEAPA,Beaupeyras,45.79470611,3.082376168,0,1,BEAP
BEAPR,BEAPR|BEAPR,Beaupeyras,45.79466748,3.082774351,0,1,BEAP
BEASA,BEASA|BEASA,Beauséjour,45.72407566,3.192161339,0,1,BEAS
BEASR,BEASR|BEASR,Beauséjour,45.72400857,3.191942148,0,1,BEAS
BELVA,BELVA|BELVA,Bellevue,45.73382063,3.106682068,0,1,BELV
BELVR,BELVR|BELVR,Bellevue,45.73397224,3.106876908,0,1,BELV
BEMAA,BEMAA|BEMAA,Matussat Châtaigneraie,45.74894298,3.069277852,0,1,BEMA
BEPAA,BEPAA|BEPAB,"BEAUMONT Pl. d'Armes",45.75158812,3.088346688,0,1,BEPA
BEPAB,BEPAB|BEPAB,"BEAUMONT Pl. d'Armes",45.75158812,3.088346679,0,1,BEPA
BEPAR,BEPAR|BEPAR,"BEAUMONT Pl. d'Armes",45.75111123,3.088353028,0,1,BEPA
BEPBA,BEPBA|BEPBA,BEAUMONT Pont de Boisséjour,45.74743104,3.072097798,0,1,BEPB
BEPBR,BEPBR|BEPBR,BEAUMONT Pont de Boisséjour,45.7473948,3.072135853,0,1,BEPB
BERCA,BERCA|BERCA,Berceaux,45.76435914,3.051871887,0,1,BERC
BERCR,BERCR|BERCR,Berceaux,45.76447944,3.052760448,0,1,BERC
BERTA,BERTA|BERTA,Berthelot,45.78105263,3.070968407,0,1,BERT
BERTR,BERTR|BERTR,Berthelot,45.7809778,3.070925492,0,1,BERT
BEZAA,BEZAA|BEZAA,Bezance,45.73146775,3.099646586,0,1,BEZA
BEZAR,BEZAR|BEZAR,Bezance,45.73148648,3.099759239,0,1,BEZA
BEZOA,BEZOA|BEZOA,La Bezou,45.74349653,3.107408468,0,1,BEZO
BEZOR,BEZOR|BEZOR,La Bezou,45.74394325,3.107864468,0,1,BEZO
BIASA,BIASA|BIASA,Bien Assis,45.78905688,3.095674673,0,1,BIAS
BIASR,BIASR|BIASR,Bien Assis,45.78927508,3.09582712,0,1,BIAS
BMESA,BMESA|BMESA,Beaumes,45.78154354,3.063102388,0,1,BMES
BMESR,BMESR|BMESR,Beaumes,45.78123775,3.063085498,0,1,BMES
BOMOA,BOMOA|BOMOA,Boisséjour Monument,45.743577,3.059016018,0,1,BOMO
BOMOR,BOMOR|BOMOR,Boisséjour Monument,45.74347,3.059241018,0,1,BOMO
BOMOS,BOMOS|BOMOS,Boisséjour Monument,45.744061,3.058412009,0,1,BOMO
BOPLA,BOPLA|BOPLA,Boisséjour Place,45.74402,3.062210018,0,1,BOPL
BOPLR,BOPLR|BOPLR,Boisséjour Place,45.743962,3.062377018,0,1,BOPL
BOUYA,BOUYA|BOUYA,Bouys,45.79367568,3.062477998,0,1,BOUY
BOUYR,BOUYR|BOUYR,Bouys,45.79404644,3.062187068,0,1,BOUY
BREZA,BREZA|BREZA,Brézet,45.77984355,3.133415997,0,1,BREZ
BREZR,BREZR|BREZR,Brézet,45.77978686,3.132527948,0,1,BREZ
BRUMA,BRUMA|BRUMA,Frédéric Brunmurol,45.73288785,3.06441352,0,1,BRUM
BRUMR,BRUMR|BRUMR,Frédéric Brunmurol,45.73296965,3.064286138,0,1,BRUM
BRUNA,BRUNA|BRUNA,La Brune,45.75097794,3.062095128,0,1,BRUN
BRUNR,BRUNR|BRUNR,La Brune,45.75080751,3.062015768,0,1,BRUN
CAMPA,CAMPA|CAMPA,UCA - Campus Cézeaux,45.75890015,3.113858116,0,1,CAMP
CAMPR,CAMPR|CAMPR,UCA - Campus Cézeaux,45.75890977,3.113768276,0,1,CAMP
CARMA,CARMA|CARMA,Les Carmes,45.78246287,3.0942078,0,1,CARM
CARMR,CARMR|CARMR,Les Carmes,45.78241789,3.094207181,0,1,CARM
CASAA,CASAA|CASAA,Casati,45.75232035,3.107750458,0,1,CASA
CASAR,CASAR|CASAR,Casati,45.75249198,3.107650058,0,1,CASA
CATAA,CATAA|CATAA,Cataroux,45.78911424,3.098359126,0,1,CATA
CATAB,CATAB|CATAB,Cataroux,45.78918157,3.097651022,0,1,CATA
CATAR,CATAR|CATAR,Cataroux,45.78932371,3.098525423,0,1,CATA
CAVEA,CAVEA|CAVEA,Les Caves,45.73245458,3.105146968,0,1,CAVE
CAVER,CAVER|CAVER,Les Caves,45.73283014,3.105486248,0,1,CAVE
CECHA,CECHA|CECHA,CÉBAZAT CHU L. Michel,45.83968203,3.091958363,0,1,CECH
CEFOA,CEFOA|CEFOA,CEYRAT Fontimbert,45.73401104,3.075657302,0,1,CEFO
CEPEA,CEPEA|CEPEA,Cézeaux Pellez,45.76112954,3.108915031,0,1,CEPE
CEPER,CEPER|CEPER,Cézeaux Pellez,45.76116858,3.1089163,0,1,CEPE
CEPRA,CEPRA|CEPRA,Pradeaux,45.72064515,3.06799652,0,1,CEPR
CEPRR,CEPRR|CEPRR,Pradeaux,45.7210418,3.068097628,0,1,CEPR
CERER,CERER|CERER,Ceyre,45.83095614,3.085017168,0,1,CERE
CEROA,CEROA|CEROA,Ceyrat Robinson,45.7257772,3.063484608,0,1,CERO
CEROR,CEROR|CEROR,Ceyrat Robinson,45.72574064,3.063574046,0,1,CERO
CEVEA,CEVEA|CEVEA,Cévennes,45.72724863,3.189436028,0,1,CEVE
CEVER,CEVER|CEVER,Cévennes,45.72729302,3.189513797,0,1,CEVE
CEYRA,CEYRA|CEYRA,CEYRAT Mairie,45.73382704,3.063873488,0,1,CEYR
CEYRR,CEYRR|CEYRR,CEYRAT Mairie,45.7336906,3.064102948,0,1,CEYR
CHAGA,CHAGA|CHAGA,"Chapelle de l'Agneau",45.75025352,3.079332355,0,1,CHAG
CHAGR,CHAGR|CHAGR,"Chapelle de l'Agneau",45.74978656,3.079197543,0,1,CHAG
CHALA,CHALA|CHALA,Chalonnax,45.79174049,3.091300271,0,1,CHAL
CHALR,CHALR|CHALR,Chalonnax,45.79194611,3.091496011,0,1,CHAL
CHAMA,CHAMA|CHAMA,Champratel,45.81489234,3.112306612,0,1,CHAM
CHANA,CHANA|CHANA,Chanelles,45.78952834,3.080325429,0,1,CHAN
CHANR,CHANR|CHANR,Chanelles,45.78939365,3.080285027,0,1,CHAN
CHAPS,CHAPS|CHAPS,Les Chapelles,45.79707,3.166630013,0,1,CHAP
CHATA,CHATA|CHATA,Châtaigneraie,45.75132119,3.074321697,0,1,CHAT
CHATR,CHATR|CHATR,Châtaigneraie,45.75132128,3.074308846,0,1,CHAT
CHAUA,CHAUA|CHAUA,La Chaux,45.76075737,3.104140953,0,1,CHAU
CHAUR,CHAUR|CHAUR,La Chaux,45.76076637,3.104141078,0,1,CHAU
CHAZA,CHAZA|CHAZA,Chazots,45.75328897,3.136501863,0,1,CHAZ
CHAZR,CHAZR|CHAZR,Chazots,45.75344816,3.136889748,0,1,CHAZ
CHBDA,CHBDA|CHBDA,Les Chabades,45.75282414,3.083788188,0,1,CHBD
CHBDR,CHBDR|CHBDR,Les Chabades,45.7526556,3.083426038,0,1,CHBD
CHBEA,CHBEA|CHBEA,Les Chambérys,45.84753071,3.092072028,0,1,CHBE
CHBER,CHBER|CHBER,Les Chambérys,45.84764,3.092370018,0,1,CHBE
CHCRA,CHCRA|CHCRA,Champcros,45.82101854,3.107040865,0,1,CHCR
CHCRR,CHCRR|CHCRR,Champcros,45.82152225,3.107060798,0,1,CHCR
CHCTA,CHCTA|CHCTA,Champcourt,45.81587814,3.057263963,0,1,CHCT
CHCTR,CHCTR|CHCTR,Champcourt,45.81574311,3.057275068,0,1,CHCT
CHDGA,CHDGA|CHDGA,Charles de Gaulle,45.76943238,3.198240477,0,1,CHDG
CHDGR,CHDGR|CHDGR,Charles de Gaulle,45.76933372,3.198200367,0,1,CHDG
CHESA,CHESA|CHESA,CHU Estaing,45.78416144,3.109468835,0,1,CHES
CHESR,CHESR|CHESR,CHU Estaing,45.78419511,3.1094742,0,1,CHES
CHEYA,CHEYA|CHEYA,La Cheyre,45.80376661,3.056076198,0,1,CHEY
CHEYR,CHEYR|CHEYR,La Cheyre,45.8037312,3.055985682,0,1,CHEY
CHGMA,CHGMA|CHGMA,CHU G. Montpied,45.76133286,3.089559479,0,1,CHGM
CHGMB,CHGMB|CHGMB,CHU G. Montpied,45.76103219,3.090120958,0,1,CHGM
CHGMR,CHGMR|CHGMR,CHU G. Montpied,45.76139584,3.08956034,0,1,CHGM
CHGMS,CHGMS|CHGMS,CHU G. Montpied,45.76107127,3.089454192,0,1,CHGM
GACOR,GACOR|GACOR,Gare Le Cendre Orcet,45.7232,3.189560017,0,1,GACO
BOBER,BOBER|BOBER,Boisbeaumont,45.75477,3.096340009,0,1,BOBE
CHMAA,CHMAA|CHMAA,Chamalières Mairie,45.77593823,3.068216461,0,1,CHMA
CHMAB,CHMAB|CHMAB,Chamalières Mairie,45.77549164,3.068165488,0,1,CHMA
CHMAR,CHMAR|CHMAR,Chamalières Mairie,45.77572122,3.067529815,0,1,CHMA
CHMAS,CHMAS|CHMAS,Chamalières Mairie,45.77541009,3.068254408,0,1,CHMA
CHOMA,CHOMA|CHOMA,Chomontel,45.73080351,3.096567798,0,1,CHOM
CHOMR,CHOMR|CHOMR,Chomontel,45.73099104,3.096775938,0,1,CHOM
CHPLA,CHPLA|CHPLA,Chaptal,45.75925645,3.101266506,0,1,CHPL
CHPLR,CHPLR|CHPLR,Chaptal,45.75843263,3.102013422,0,1,CHPL
CHPTA,CHPTA|CHPTA,Champradet,45.78768904,3.059520739,0,1,CHPT
CHPTR,CHPTR|CHPTR,Champradet,45.78774889,3.058716076,0,1,CHPT
CHPVA,CHPVA|CHPVA,Champvoisin,45.7522764,3.110217443,0,1,CHPV
CHPVR,CHPVR|CHPVR,Champvoisin,45.75233982,3.110154073,0,1,CHPV
CHRCA,CHRCA|CHRCA,Charcot Fontaine du Large,45.79392668,3.091317408,0,1,CHRC
CHRCR,CHRCR|CHRCR,Charcot Fontaine du Large,45.79393715,3.091098887,0,1,CHRC
CHSSA,CHSSA|CHSSA,Chaussades,45.75087501,3.07650051,0,1,CHSS
CHSSR,CHSSR|CHSSR,Chaussades,45.75090056,3.076719332,0,1,CHSS
CHTEA,CHTEA|CHTEA,Chanteranne,45.79144,3.095870018,0,1,CHTE
CHTER,CHTER|CHTER,Chanteranne,45.79140362,3.095899968,0,1,CHTE
CHTMA,CHTMA|CHTMA,Chantemerle,45.73689239,3.061498458,0,1,CHTM
CHTMR,CHTMR|CHTMR,Chantemerle,45.73746314,3.060889238,0,1,CHTM
CICEA,CICEA|CICEA,Cité Centre Enfance,45.76829691,3.071849469,0,1,CICE
CICER,CICER|CICER,Cité Centre Enfance,45.76829977,3.071412411,0,1,CICE
CLADA,CLADA|CLADA,Cladenas,45.83012156,3.104723058,0,1,CLAD
VALLA,VALLA|VALLR,Vallières,45.75915812,3.083784149,0,1,VALL
CLADR,CLADR|CLADR,Cladenas,45.83027687,3.104377738,0,1,CLAD
CLADS,CLADS|CLADS,Cladenas,45.83060465,3.105440157,0,1,CLAD
CLADB,CLADB|CLADB,Cladenas,45.830597,3.105369018,0,1,CLAD
CLFOA,CLFOA|CLFOA,Clos Four,45.78684396,3.098280479,0,1,CLFO
CLFOR,CLFOR|CLFOR,Clos Four,45.78747208,3.098482507,0,1,CLFO
CLHUA,CLHUA|CLHUA,Clovis Hugues,45.77271556,3.110556138,0,1,CLHU
CLHUR,CLHUR|CLHUR,Clovis Hugues,45.77275155,3.110556648,0,1,CLHU
CLMSA,CLMSA|CLMSA,Clémensat,45.72225085,3.079905399,0,1,CLMS
CELIR,CELIR|CELIR,CEYRAT Libération,45.71998,3.068038009,0,1,CELI
CLMSR,CLMSR|CLMSR,Clémensat,45.72240132,3.080279936,0,1,CLMS
COACA,COACA|COACA,Collège A. Camus,45.80742154,3.106695431,0,1,COAC
COACR,COACR|COACR,Collège A. Camus,45.80738125,3.106682626,0,1,COAC
COBLA,COBLA|COBLA,Côte Blatin,45.77067451,3.094521258,0,1,COBL
COBLR,COBLR|COBLR,Côte Blatin,45.77108921,3.094398398,0,1,COBL
COFLA,COFLA|COFLA,Côtes Fleuries,45.79450258,3.084572784,0,1,COFL
COFLR,COFLR|COFLR,Côtes Fleuries,45.79450386,3.084379872,0,1,COFL
COHOA,COHOA|COHOA,Hortensias,45.72614093,3.189573037,0,1,COHO
COHOR,COHOR|COHOR,Hortensias,45.72635752,3.189486467,0,1,COHO
COJCA,COJCA|COJCA,Collège Joliot Curie,45.752036,3.119330018,0,1,COJC
COLOA,COLOA|COLOA,Colombier,45.78054996,3.048237569,0,1,COLO
COLOR,COLOR|COLOR,Colombier,45.78035351,3.048003575,0,1,COLO
COMBA,COMBA|COMBA,Combes,45.7666377,3.0669037,0,1,COMB
COMBR,COMBR|COMBR,Combes,45.76661013,3.066993322,0,1,COMB
COMOA,COMOA|COMOA,Collège Mortaix,45.79235352,3.256931322,0,1,COMO
CONMA,CONMA|CONMA,Condamine,45.77714208,3.113177095,0,1,CONM
CONMR,CONMR|CONMR,Condamine,45.77698343,3.112699116,0,1,CONM
COTER,COTER|COTER,Les Côtes,45.79973039,3.084502359,0,1,COTE
COUMA,COUMA|COUMA,Coumes,45.83138858,3.091664258,0,1,COUM
PIMOR,PIMOR|PIMOR,Pierre Montgroux,45.83156388,3.096364429,0,1,PIMO
COUTA,COUTA|COUTA,Georges Couthon,45.7356887,3.101902958,0,1,COUT
COUTR,COUTR|COUTR,Georges Couthon,45.73600269,3.102035798,0,1,COUT
CRBAA,CRBAA|CRBAA,Croix Basse,45.77470334,3.193720027,0,1,CRBA
CRBLA,CRBLA|CRBLA,Croix Blanche,45.79907461,3.244560974,0,1,CRBL
CRBLR,CRBLR|CRBLR,Croix Blanche,45.79920924,3.244394677,0,1,CRBL
CRFRA,CRFRA|CRFRA,Croix de Frun,45.75851828,3.063364131,0,1,CRFR
CRFRR,CRFRR|CRFRR,Croix de Frun,45.75846564,3.063157788,0,1,CRFR
CRLEA,CRLEA|CRLEA,Croix Leonardoux,45.77343093,3.122857519,0,1,CRLE
CRLER,CRLER|CRLER,Croix Leonardoux,45.77350965,3.12318007,0,1,CRLE
CRNEA,CRNEA|CRNEA,Croix de Neyrat,45.81434646,3.106824177,0,1,CRNE
CRNVA,CRNVA|CRNVA,Croix Neuve,45.75433654,3.087703018,0,1,CRNV
CRNVR,CRNVR|CRNVR,Croix Neuve,45.75436353,3.087703381,0,1,CRNV
CTILA,CTILA|CTILA,Coutils,45.82467465,3.105251828,0,1,CTIL
CTILR,CTILR|CTILR,Coutils,45.8250442,3.10515403,0,1,CTIL
CUGNA,CUGNA|CUGNA,Cugnot,45.7827,3.123170018,0,1,CUGN
CUGNR,CUGNR|CUGNR,Cugnot,45.7826,3.123250018,0,1,CUGN
DAGUA,DAGUA|DAGUA,Daguerre,45.75920049,3.096252798,0,1,DAGU
DAGUR,DAGUR|DAGUR,Daguerre,45.75975178,3.095887648,0,1,DAGU
HACHT,HACHT|HACHT,Hauts de Chanturgue,45.81118131,3.106208326,0,1,HACH
DAUDR,DAUDR|DAUDR,Alphonse Daudet,45.81432815,3.102572512,0,1,DAUD
DEBUA,DEBUA|DEBUA,Debussy,45.81768895,3.107060212,0,1,DEBU
DEBUR,DEBUR|DEBUR,Debussy,45.81776972,3.107162638,0,1,DEBU
DEMOA,DEMOA|DEMOA,Delille Montlosier,45.78120975,3.090441245,0,1,DEMO
DEMOB,DEMOB|DEMOB,Delille Montlosier,45.78081,3.090940018,0,1,DEMO
MILAR,MILAR|MILAR,Milan,45.78089518,3.206379627,0,1,MILA
DEMOR,DEMOR|DEMOR,Delille Montlosier,45.78121724,3.090446609,0,1,DEMO
DEMOS,DEMOS|DEMOS,Delille Montlosier,45.780504,3.091459018,0,1,DEMO
GAILT,GAILT|GAILT,Gaillard,45.7803,3.081780009,0,1,GAIL
DEPAA,DEPAA|DEPAA,Deux Patriotes,45.78098523,3.103805838,0,1,DEPA
DEPAR,DEPAR|DEPAR,Deux Patriotes,45.78081605,3.103546298,0,1,DEPA
DESAA,DESAA|DESAA,Delille Salford,45.77960104,3.092544096,0,1,DESA
DESAR,DESAR|DESAR,Delille Salford,45.77959868,3.091995308,0,1,DESA
DIDEA,DIDEA|DIDEA,Diderot,45.80466445,3.109256068,0,1,DIDE
DIDER,DIDER|DIDER,Diderot,45.80541008,3.109420902,0,1,DIDE
DOLEA,DOLEA|DOLEA,Etienne Dolet,45.7649694,3.086613996,0,1,DOLE
DOLER,DOLER|DOLER,Etienne Dolet,45.76466369,3.086584128,0,1,DOLE
DRELR,DRELR|DRELR,Drelon,45.77020222,3.08016302,0,1,DREL
DRHOA,DRHOA|DRHOA,Docteur Hospital,45.79417587,3.087693778,0,1,DRHO
DRHOR,DRHOR|DRHOR,Docteur Hospital,45.79413705,3.088117681,0,1,DRHO
DUCLA,DUCLA|DUCLA,Duclaux,45.77620388,3.071799892,0,1,DUCL
DUCLR,DUCLR|DUCLR,Duclaux,45.77617769,3.071923274,0,1,DUCL
EDQUA,EDQUA|EDQUA,Edgar Quinet,45.80503576,3.118711728,0,1,EDQU
EDQUR,EDQUR|EDQUR,Edgar Quinet,45.80499089,3.118851202,0,1,EDQU
EDROS,EDROS|EDROS,Edmond Rostand,45.7985,3.169840009,0,1,EDRO
EGALA,EGALA|EGALA,Égalité,45.746309,3.060350018,0,1,EGAL
EGALR,EGALR|EGALR,Égalité,45.74648,3.059927018,0,1,EGAL
EGARA,EGARA|EGARA,"Eglise d'ARGNAT",45.84490637,3.030957398,0,1,EGAR
EGARR,EGARR|EGARR,"Eglise d'ARGNAT",45.84494315,3.030829128,0,1,EGAR
EGPEA,EGPEA|EGPEA,Eglise de Pérignat,45.73658431,3.141115998,0,1,EGPE
EGPER,EGPER|EGPER,Eglise de Pérignat,45.73659322,3.141128978,0,1,EGPE
ELRES,ELRES|ELRES,Elisée Reclus,45.7905,3.135500009,0,1,ELRE
ESMAA,ESMAA|ESMAA,Espace des Marronniers,45.72187704,3.185910387,0,1,ESMA
ESMAR,ESMAR|ESMAR,Espace des Marronniers,45.72176909,3.185908727,0,1,ESMA
ESPLA,ESPLA|ESPLA,Esplanade,45.77739366,3.095655459,0,1,ESPL
ESPLR,ESPLR|ESPLR,Esplanade,45.77759854,3.095079488,0,1,ESPL
EUROA,EUROA|EUROA,Europe,45.77435181,3.063114899,0,1,EURO
EUROR,EUROR|EUROR,Europe,45.77435414,3.063213218,0,1,EURO
MIANR,MIANR|MIANR,Michel Ange,45.76047,3.131830009,0,1,MIAN
FACUA,FACUA|FACUA,Faculté,45.77627871,3.090827483,0,1,FACU
CARNR,CARNR|CARNR,Carnot,45.77622258,3.094866889,0,1,CARN
FOBAB,FOBAB|FOBAB,Fontaine du Bac,45.7623344,3.122004918,0,1,FOBA
FOBAS,FOBAS|FOBAS,Fontaine du Bac,45.76229833,3.122017248,0,1,FOBA
FOIRA,FOIRA|FOIRA,Foirail,45.7365,3.200770017,0,1,FOIR
FOIRR,FOIRR|FOIRR,Foirail,45.7365,3.200650017,0,1,FOIR
FONTA,FONTA|FONTA,Fontcimagne,45.7976621,3.104372808,0,1,FONT
FONTR,FONTR|FONTR,Fontcimagne,45.79785764,3.104722822,0,1,FONT
FOREA,FOREA|FOREA,Fernand Forest,45.74310177,3.095349708,0,1,FORE
FORER,FORER|FORER,Fernand Forest,45.74311933,3.095414198,0,1,FORE
FORUA,FORUA|FORUA,Forum,45.71937597,3.183508437,0,1,FORU
FORUR,FORUR|FORUR,Forum,45.71933941,3.183584947,0,1,FORU
FOURA,FOURA|FOURA,Fournières,45.78943219,3.061602133,0,1,FOUR
FOURR,FOURR|FOURR,Fournières,45.78893529,3.063701538,0,1,FOUR
FRLUA,FRLUA|FRLUA,Frères Lumière,45.7893,3.135160018,0,1,FRLU
FRLUR,FRLUR|FRLUR,Frères Lumière,45.78934241,3.135212677,0,1,FRLU
FRROA,FRROA|FRROA,Franklin Roosevelt,45.77724,3.073410018,0,1,FRRO
FRROR,FRROR|FRROR,Franklin Roosevelt,45.77713,3.073360018,0,1,FRRO
GACOA,GACOA|GACOA,Gare Le Cendre Orcet,45.72356259,3.189033883,0,1,GACO
GAGAA,GAGAA|GAGAA,Gagarine,45.7927,3.144880018,0,1,GAGA
GAGAR,GAGAR|GAGAR,Gagarine,45.79256298,3.144755977,0,1,GAGA
GAILA,GAILA|GAILA,Gaillard,45.77972995,3.08176176,0,1,GAIL
GAILB,GAILB|GAILB,Gaillard,45.780179,3.082062018,0,1,GAIL
GAILS,GAILS|GAILT,Gaillard,45.7803,3.081780009,0,1,GAIL
GAILC,GAILC|GAILC,Gaillard,45.78034,3.082578018,0,1,GAIL
GAILR,GAILR|GAILR,Gaillard,45.77966838,3.081761616,0,1,GAIL
GALOA,GALOA|GALOA,Galoubies,45.76762115,3.069243611,0,1,GALO
GALOR,GALOR|GALOR,Galoubies,45.76743223,3.069241108,0,1,GALO
SARDR,SARDR|SARDR,Victorien Sardou,45.80767924,3.122137728,0,1,SARD
SARRA,SARRA|SARRA,La Sarre,45.76932661,3.115997332,0,1,SARR
GAMAR,GAMAR|GAMAR,Gamay,45.74865172,3.134493959,0,1,GAMA
GANDA,GANDA|GANDA,Gandaillat,45.77865823,3.157260435,0,1,GAND
GANDR,GANDR|GANDR,Gandaillat,45.77854583,3.157467928,0,1,GAND
GAPEA,GAPEA|GAPEA,Gabriel Péri,45.7809275,3.076171578,0,1,GAPE
GAPER,GAPER|GAPER,Gabriel Péri,45.78073722,3.076374758,0,1,GAPE
GARDA,GARDA|GARDA,Gardes,45.74074271,3.188475688,0,1,GARD
GARDR,GARDR|GARDR,Gardes,45.74062939,3.189180658,0,1,GARD
GARGA,GARGA|GARGA,Gargailles,45.77052872,3.188975257,0,1,GARG
GARGR,GARGR|GARGR,Gargailles,45.77022862,3.189394867,0,1,GARG
GARNA,GARNA|GARNA,Garnaudes,45.77282147,3.060507792,0,1,GARN
GARNR,GARNR|GARNR,Garnaudes,45.77282352,3.060595928,0,1,GARN
GASNA,GASNA|GASNA,Gare SNCF,45.77871435,3.099523204,0,1,GASN
GASNR,GASNR|GASNR,Gare SNCF,45.77869565,3.099507111,0,1,GASN
GASNT,GASNB|GASNT,Gare SNCF,45.77829907,3.098976034,0,1,GASN
GASNB,GASNB|GASNB,Gare SNCF,45.77829907,3.098976025,0,1,GASN
GAZEA,GAZEA|GAZEA,ROMAGNAT La Gazelle,45.73793646,3.104760908,0,1,GAZE
GAZER,GAZER|GAZER,ROMAGNAT La Gazelle,45.7379975,3.105044428,0,1,GAZE
GECHR,GECHR|GECHR,GERZAT Champfleuri,45.83522816,3.147872695,0,1,GECH
GLACA,GLACA|GLACA,Glacière,45.79227911,3.079320848,0,1,GLAC
GLACR,GLACR|GLACR,Glacière,45.79218074,3.079229477,0,1,GLAC
DAUDA,DAUDA|DAUDA,Alphonse Daudet,45.81425627,3.102558658,0,1,DAUD
GOMER,GOMER|GOMER,Gomel,45.81244121,3.099561291,0,1,GOME
GONCA,GONCA|GONCA,Goncourt,45.78407166,3.068709987,0,1,GONC
GONCR,GONCR|GONCR,Goncourt,45.78389961,3.068830208,0,1,GONC
GOURA,GOURA|GOURA,Gourgat,45.75382749,3.139208718,0,1,GOUR
GOURR,GOURR|GOURR,Gourgat,45.75389919,3.139248313,0,1,GOUR
GRAIA,GRAIA|GRAIA,Graviers,45.84576273,3.109395998,0,1,GRAI
GRAIR,GRAIR|GRAIR,Graviers,45.84586071,3.109538998,0,1,GRAI
GRANA,GRANA|GRANA,Grangevieille,45.77584158,3.191937667,0,1,GRAN
GRANR,GRANR|GRANR,Grangevieille,45.7757127,3.191138487,0,1,GRAN
COPER,COPER|COPER,"COURNON Plan d'Eau",45.73927795,3.213958709,0,1,COPE
GRASA,GRASA|GRASA,Grassette,45.77353412,3.181783208,0,1,GRAS
GRASR,GRASR|GRASR,Grassette,45.77363743,3.181206209,0,1,GRAS
GRAVA,GRAVA|GRAVA,Gravanches,45.7889085,3.118019718,0,1,GRAV
GRAVR,GRAVR|GRAVR,Gravanches,45.78936187,3.11813375,0,1,GRAV
GRENA,GRENA|GRENA,Grenier,45.76917858,3.123671008,0,1,GREN
GRENR,GRENR|GRENR,Grenier,45.76911335,3.123991462,0,1,GREN
GRVIA,GRVIA|GRVIA,Gravière,45.78959677,3.110064286,0,1,GRVI
GRVIR,GRVIR|GRVIR,Gravière,45.78965153,3.110074124,0,1,GRVI
GRVNA,GRVNA|GRVNA,Gravenoire,45.75327136,3.06250872,0,1,GRVN
GRVNR,GRVNR|GRVNR,Gravenoire,45.75311773,3.062328948,0,1,GRVN
HACHA,HACHA|HACHA,Hauts de Chanturgue,45.81032323,3.107092398,0,1,HACH
HACHB,HACHB|HACHB,Hauts de Chanturgue,45.81031988,3.107186938,0,1,HACH
HACHR,HACHR|HACHR,Hauts de Chanturgue,45.81066724,3.107124585,0,1,HACH
HACHS,HACHS|HACHS,Hauts de Chanturgue,45.81065204,3.107294518,0,1,HACH
HACHC,HACHC|HACHC,Hauts de Chanturgue,45.81125,3.106360009,0,1,HACH
HACMR,HACMR|HACMR,Hauts de CHAMALIÈRES,45.78157241,3.052995708,0,1,HACM
HALLA,HALLA|HALLA,Hallstadt,45.77167339,3.186331625,0,1,HALL
HALLR,HALLR|HALLR,Hallstadt,45.77181426,3.185549548,0,1,HALL
HEBAR,HEBAR|HEBAR,Henri Barbusse,45.78342887,3.084306551,0,1,HEBA
HERBA,HERBA|HERBA,Herbet,45.78021374,3.113953388,0,1,HERB
HERBR,HERBR|HERBR,Herbet,45.77947384,3.115332144,0,1,HERB
HERMR,HERMR|HERMR,"L'Hermitage",45.76526032,3.125594667,0,1,HERM
HOVIA,HOVIA|HOVIA,Hôtel de Ville,45.78060369,3.085076827,0,1,HOVI
HOVIR,HOVIR|HOVIR,Hôtel de Ville,45.78059994,3.085007089,0,1,HOVI
HUMAA,HUMAA|HUMAA,08-mai,45.77017727,3.078701238,0,1,HUMA
HUMAR,HUMAR|HUMAR,08-mai,45.77232229,3.078138742,0,1,HUMA
ILIAA,ILIAA|ILIAA,Iliane,45.80780498,3.126024788,0,1,ILIA
ILIAR,ILIAR|ILIAR,Iliane,45.80772122,3.126422398,0,1,ILIA
INMER,INMER|INMER,Institut des Métiers,45.8105588,3.129118699,0,1,INME
JANOA,JANOA|JANOA,Janolle,45.73139034,3.07193501,0,1,JANO
JANOR,JANOR|JANOR,Janolle,45.73142548,3.072063951,0,1,JANO
JARZR,JARZR|JARZR,Jarzy,45.83000286,3.080742377,0,1,JARZ
JAUDA,JAUDA|JAUDA,Jaude,45.77675761,3.081772345,0,1,JAUD
JAUDB,JAUDB|JAUDB,Jaude,45.77704196,3.080860394,0,1,JAUD
JAUDR,JAUDR|JAUDR,Jaude,45.77688108,3.081750887,0,1,JAUD
JAUDS,JAUDS|JAUDS,Jaude,45.77706441,3.081289547,0,1,JAUD
JEJAA,JEJAA|JEJAA,Jean Jaurès,45.76720863,3.081976193,0,1,JEJA
JEJAR,JEJAR|JEJAR,Jean Jaurès,45.76806182,3.083118814,0,1,JEJA
JEMES,JEMES|JEMES,Jean Mermoz,45.79151566,3.13970806,0,1,JEME
JOCUA,JOCUA|JOCUA,Joliot Curie,45.75159262,3.116723767,0,1,JOCU
JOCUR,JOCUR|JOCUR,Joliot Curie,45.75184525,3.117467183,0,1,JOCU
JUVEA,JUVEA|JUVEA,Jules Verne,45.78167,3.120670018,0,1,JUVE
JUVER,JUVER|JUVER,Jules Verne,45.78158761,3.120664376,0,1,JUVE
KEPLA,KEPLA|KEPLA,Kepler,45.77952,3.121620018,0,1,KEPL
KEPLR,KEPLR|KEPLR,Kepler,45.77930701,3.121437038,0,1,KEPL
LACXA,LACXA|LACXA,Lacheix,45.72360495,3.083289149,0,1,LACX
LACXR,LACXR|LACXR,Lacheix,45.72363991,3.083443767,0,1,LACX
LAIAA,LAIAA|LAIAA,AIA,45.77785385,3.166975397,0,1,LAIA
LAIAR,LAIAR|LAIAR,AIA,45.777714,3.167819155,0,1,LAIA
LANDA,LANDA|LANDA,Landais,45.76386467,3.116730558,0,1,LAND
LANDR,LANDR|LANDR,Landais,45.76376171,3.116009227,0,1,LAND
LAOUA,LAOUA|LAOUA,Ladoux Ouest,45.84106746,3.120915588,0,1,LAOU
LAOUR,LAOUR|LAOUR,Ladoux Ouest,45.84091407,3.120977751,0,1,LAOU
LAPTA,LAPTA|LAPTA,CÉBAZAT Porte de Troyes,45.84117267,3.129014148,0,1,LAPT
LAYAA,LAYAA|LAYAA,Layat,45.79120146,3.053566235,0,1,LAYA
LAYAR,LAYAR|LAYAR,Layat,45.79127253,3.053480404,0,1,LAYA
LCHAA,LCHAA|LCHAA,Le Château,45.77019566,3.106728108,0,1,LCHA
LCHAR,LCHAR|LCHAR,Le Château,45.77004361,3.107908758,0,1,LCHA
CAMEA,CAMEA|CAMEA,Catherine de Médicis,45.76976027,3.111170239,0,1,CAME
LEBLA,LEBLA|LEBLA,Léon Blum,45.76280776,3.098487872,0,1,LEBL
LEBLR,LEBLR|LEBLR,Léon Blum,45.76283022,3.09841277,0,1,LEBL
LECEA,LECEA|LECEA,Le Cèdre,45.79966445,3.252714393,0,1,LECE
LECER,LECER|LECER,Le Cèdre,45.79960765,3.253060758,0,1,LECE
LECLA,LECLA|LECLA,Camille et Edmond Leclanché,45.80648035,3.110786738,0,1,LECL
LECLR,LECLR|LECLR,Camille et Edmond Leclanché,45.80647902,3.110979691,0,1,LECL
LECOA,LECOA|LECOA,Lecoq,45.77132858,3.086880638,0,1,LECO
LECOR,LECOR|LECOR,Lecoq,45.77181421,3.086912968,0,1,LECO
LEMAR,LEMAR|LEMAR,Léon Maniez,45.79672877,3.164890798,0,1,LEMA
LEPOA,LEPOA|LEPOA,LEMPDES Le Pontel,45.77586181,3.196361047,0,1,LEPO
LEPOR,LEPOR|LEPOR,LEMPDES Le Pontel,45.77571035,3.196165817,0,1,LEPO
LERUA,LERUA|LERUA,Le Ruchon,45.79774539,3.238571787,0,1,LERU
LERUR,LERUR|LERUR,Le Ruchon,45.79761117,3.238479537,0,1,LERU
LETRA,LETRA|LETRA,Letrade,45.82533332,3.050335608,0,1,LETR
LETRR,LETRR|LETRR,Letrade,45.8253783,3.050336198,0,1,LETR
LGRVA,LGRVA|LGRVA,La Grave,45.79666972,3.059996461,0,1,LGRV
STDUR,STDUA|STDUR,Stade de Durtol,45.79755617,3.053276548,0,1,STDU
LGRVR,LGRVR|LGRVR,La Grave,45.79667921,3.059919418,0,1,LGRV
LIERA,LIERA|LIERA,Les Lierres,45.79505572,3.075756943,0,1,LIER
LIERR,LIERR|LIERR,Les Lierres,45.7952511,3.07614543,0,1,LIER
LIMOA,LIMOA|LIMOA,Limousin,45.78744216,3.064906615,0,1,LIMO
LIMOR,LIMOR|LIMOR,Limousin,45.78733253,3.065287888,0,1,LIMO
LIONA,LIONA|LIONA,Liondards,45.75900434,3.086609868,0,1,LION
LIONR,LIONR|LIONR,Liondards,45.75902199,3.086661518,0,1,LION
LMASA,LMASA|LMASA,Le Mas,45.75539569,3.104053361,0,1,LMAS
LMASR,LMASR|LMASR,Le Mas,45.75536799,3.104155797,0,1,LMAS
LYABA,LYABA|LYABA,Lycée A. Brugière,45.80165128,3.110435783,0,1,LYAB
LYABR,LYABR|LYABR,Lycée A. Brugière,45.80167826,3.110436163,0,1,LYAB
LYLAA,LYLAA|LYLAA,Lycée La Fayette,45.763514,3.129554609,0,1,LYLA
LYLAB,LYLAB|LYLAB,Lycée La Fayette,45.76260538,3.129541528,0,1,LYLA
LYLAR,LYLAR|LYLAR,Lycée La Fayette,45.76350536,3.129503066,0,1,LYLA
LYLAS,LYLAS|LYLAS,Lycée La Fayette,45.76258322,3.129322546,0,1,LYLA
LEDVA,LEDVA|LEDVA,Leonard de Vinci,45.7606,3.135470018,0,1,LEDV
LYSAA,LYSAA|LYSAA,Lycée Sidoine Apollinaire,45.78183182,3.086342287,0,1,LYSA
LYSAR,LYSAR|LYSAR,Lycée Sidoine Apollinaire,45.78175513,3.087048498,0,1,LYSA
MABEA,MABEA|MABEA,Beaumont Mairie,45.75387612,3.08524192,0,1,MABE
MABEB,MABEB|MABEB,Beaumont Mairie,45.7535889,3.086418406,0,1,MABE
MABER,MABER|MABER,Beaumont Mairie,45.75429694,3.085248488,0,1,MABE
MABES,MABES|MABES,Beaumont Mairie,45.7534518,3.086811318,0,1,MABE
MACHA,MACHA|MACHA,Châteaugay Mairie,45.84983791,3.084166998,0,1,MACH
MACHR,MACHR|MACHR,Châteaugay Mairie,45.84987406,3.084141748,0,1,MACH
MACUA,MACUA|MACUA,Maison de la Culture,45.77086078,3.084980267,0,1,MACU
MACUB,MACUB|MACUB,Maison de la Culture,45.771135,3.084484018,0,1,MACU
MACUR,MACUR|MACUR,Maison de la Culture,45.7708642,3.085010123,0,1,MACU
MACUS,MACUS|MACUS,Maison de la Culture,45.7710142,3.084604758,0,1,MACU
MAILA,MAILA|MAILA,Le Maillot,45.84922512,3.101719818,0,1,MAIL
MAILR,MAILR|MAILR,Le Maillot,45.84930188,3.102693575,0,1,MAIL
MALEA,MALEA|MALEA,Lempes Mairie,45.76837526,3.197645417,0,1,MALE
MALER,MALER|MALER,Lempes Mairie,45.76833491,3.197040547,0,1,MALE
MAMIA,MAMIA|MAMIA,Marcel Michelin,45.75364892,3.113411272,0,1,MAMI
MAMIR,MAMIR|MAMIR,Marcel Michelin,45.75371323,3.113219392,0,1,MAMI
MARGA,MARGA|MARGA,Margeride,45.76085529,3.11994,0,1,MARG
MARGB,MARGB|MARGB,Margeride,45.7610489,3.120559768,0,1,MARG
MARGR,MARGR|MARGR,Margeride,45.76085556,3.119901442,0,1,MARG
MARGS,MARGS|MARGS,Margeride,45.76111412,3.120239329,0,1,MARG
MAROA,MAROA|MAROA,Romagnat Mairie,45.7302972,3.103549548,0,1,MARO
LETOA,LETOA|LETOA,Les Tonnelles,45.72871549,3.100740918,0,1,LETO
MAROR,MAROR|MAROR,Romagnat Mairie,45.73052649,3.102910388,0,1,MARO
MASPA,MASPA|MASPA,Maison des Sports,45.78625346,3.084383507,0,1,MASP
MASPR,MASPR|MASPR,Maison des Sports,45.78686393,3.084584718,0,1,MASP
MASSA,MASSA|MASSA,Massenet,45.77040668,3.064253886,0,1,MASS
MASSR,MASSR|MASSR,Massenet,45.77014761,3.063967638,0,1,MASS
MATHA,MATHA|MATHA,Matharet,45.74791092,3.068878591,0,1,MATH
MATHR,MATHR|MATHR,Matharet,45.74784635,3.069121901,0,1,MATH
MAZEA,MAZEA|MAZEA,Mazeyrat,45.74178518,3.058954388,0,1,MAZE
MAZER,MAZER|MAZER,Mazeyrat,45.74211805,3.058958758,0,1,MAZE
MBOIA,MBOIA|MBOIA,Montboissier,45.79817692,3.258580909,0,1,MBOI
MBOIR,MBOIR|MBOIR,Montboissier,45.79857834,3.257905897,0,1,MBOI
MERCA,MERCA|MERCA,Mercoeur,45.8095677,3.119694513,0,1,MERC
MERCR,MERCR|MERCR,Mercoeur,45.80956707,3.119784568,0,1,MERC
MEUNA,MEUNA|MEUNA,Meuniers,45.76603142,3.105204348,0,1,MEUN
MEUNR,MEUNR|MEUNR,Meuniers,45.76602638,3.104625788,0,1,MEUN
MIDIA,MIDIA|MIDIA,Midi,45.73296523,3.187802957,0,1,MIDI
MIDIR,MIDIR|MIDIR,Midi,45.73293844,3.187776847,0,1,MIDI
MIHOR,MIHOR|MIHOR,"Michel de l'Hospital",45.7777833,3.090350273,0,1,MIHO
MIHOA,MIHOA|MIHOA,"Michel de l'Hospital",45.77768548,3.090140837,0,1,MIHO
MILAA,MILAA|MILAA,Milan,45.78098455,3.206458193,0,1,MILA
LPMAA,LPMAA|LPMAA,LEMPDES Marmilhat,45.77721511,3.175629299,0,1,LPMA
DUCIB,DUCIB|DUCIS,DURTOL Clinique,45.79381599,3.053147802,0,1,DUCI
DUCIS,DUCIS|DUCIS,DURTOL Clinique,45.79381599,3.053147802,0,1,DUCI
DUCIR,DUCIR|DUCIR,DURTOL Clinique,45.79380477,3.053115624,0,1,DUCI
MTANA,MTANA|MTANA,Montant,45.72885917,3.094048738,0,1,MTAN
MTANR,MTANR|MTANR,Montant,45.72931147,3.095018458,0,1,MTAN
MTCHA,MTCHA|MTCHA,Montcharvais,45.7887514,3.056237715,0,1,MTCH
MTCHR,MTCHR|MTCHR,Montcharvais,45.78833992,3.056859988,0,1,MTCH
MTFDA,MTFDA|MTFDA,Montferrand La Fontaine,45.79151192,3.114516753,0,1,MTFD
MTFDR,MTFDR|MTFDR,Montferrand La Fontaine,45.79151896,3.114563232,0,1,MTFD
MTGNA,MTGNA|MTGNA,Montagnards,45.76051519,3.062040826,0,1,MTGN
MTGNR,MTGNR|MTGNR,Montagnards,45.75987462,3.062315178,0,1,MTGN
MTJOA,MTJOA|MTJOA,Montjoly,45.77350716,3.066184847,0,1,MTJO
MTJOR,MTJOR|MTJOR,Montjoly,45.77344627,3.065862616,0,1,MTJO
MTLBA,MTLBA|MTLBA,Montalembert,45.75674832,3.095653428,0,1,MTLB
MTLBR,MTLBR|MTLBR,Montalembert,45.75598251,3.095809968,0,1,MTLB
MTPOA,MTPOA|MTPOA,Montpoly,45.75180858,3.080908413,0,1,MTPO
MTQUA,MTQUA|MTQUA,Montquerier,45.85081596,3.107239648,0,1,MTQU
MTQUR,MTQUR|MTQUR,Montquerier,45.85074822,3.106620688,0,1,MTQU
MTROA,MTROA|MTROA,Montrognon,45.73215498,3.066433728,0,1,MTRO
MTROR,MTROR|MTROR,Montrognon,45.73209217,3.066407198,0,1,MTRO
GOMEA,GOMEA|GOMEA,Gomel,45.8124144,3.099535198,0,1,GOME
NARVR,NARVR|NARVR,Narvik,45.81490773,3.105977398,0,1,NARV
NESOA,NESOA|NESOA,Neuf Soleils,45.76638117,3.096107629,0,1,NESO
NESOR,NESOR|NESOR,Neuf Soleils,45.76728141,3.096030068,0,1,NESO
NESOS,NESOS|NESOS,Neuf Soleils,45.76648343,3.095620531,0,1,NESO
NEYRA,NEYRA|NEYRA,Neyrat,45.81477879,3.107725478,0,1,NEYR
NEYRR,NEYRR|NEYRR,Neyrat,45.81487079,3.107430821,0,1,NEYR
NYMPA,NYMPA|NYMPA,Nymphea,45.77258907,3.196065637,0,1,NYMP
NYMPR,NYMPR|NYMPR,Nymphea,45.77245344,3.196153513,0,1,NYMP
OBSEA,OBSEA|OBSEA,Observatoire,45.76419073,3.112518788,0,1,OBSE
OBSER,OBSER|OBSER,Observatoire,45.76403151,3.112708944,0,1,OBSE
OPMER,OPMER|OPMES,ROMAGNAT Opme,45.71081875,3.090230577,0,1,OPME
ORGAA,ORGAA|ORGAA,Oradou Gantière,45.76486784,3.123827908,0,1,ORGA
ORGAR,ORGAR|ORGAR,Oradou Gantière,45.7646029,3.124402598,0,1,ORGA
PABEA,PABEA|PABEA,Paul Bert,45.77192681,3.065701064,0,1,PABE
PABER,PABER|PABER,Paul Bert,45.7716231,3.065362771,0,1,PABE
PACEA,PACEA|PACEA,Paul Cézanne,45.78023351,3.051319538,0,1,PACE
PACER,PACER|PACER,Paul Cézanne,45.78080543,3.050516868,0,1,PACE
PAGAA,PAGAA|PAGAA,La Pardieu Gare,45.76674652,3.134280579,0,1,PAGA
PAGAR,PAGAR|PAGAR,La Pardieu Gare,45.76675515,3.134332126,0,1,PAGA
PAILA,PAILA|PAILA,Paillards,45.7260563,3.09074732,0,1,PAIL
PAILR,PAILR|PAILR,Paillards,45.72623467,3.090980989,0,1,PAIL
PALEA,PALEA|PALEA,Pâles,45.74096736,3.096990728,0,1,PALE
PALER,PALER|PALER,Pâles,45.74105758,3.096953428,0,1,PALE
PAMOA,PAMOA|PAMOA,Parc Montjoly,45.77360676,3.067471867,0,1,PAMO
PAMOR,PAMOR|PAMOR,Parc Montjoly,45.77352865,3.066950458,0,1,PAMO
PANEA,PANEA|PANEA,Pablo Neruda,45.76619826,3.121265191,0,1,PANE
PANER,PANER|PANER,Pablo Neruda,45.7661758,3.121200818,0,1,PANE
PARCA,PARCA|PARCA,Le Parc,45.75401351,3.096939529,0,1,PARC
PARCR,PARCR|PARCR,Le Parc,45.75382519,3.096846968,0,1,PARC
PARLR,PARLR|PARLR,Parlette,45.77654056,3.118183137,0,1,PARL
PASNA,PASNA|PASNA,Parc SNCF,45.77698584,3.101234454,0,1,PASN
PASNR,PASNR|PASNR,Parc SNCF,45.77711896,3.102118998,0,1,PASN
PEBOA,PEBOA|PEBOA,Bonneval,45.73009374,3.144130168,0,1,PEBO
PEBOR,PEBOR|PEBOR,Bonneval,45.73035564,3.143992688,0,1,PEBO
PECHA,PECHA|PECHA,Petit Champ,45.79622959,3.233479077,0,1,PECH
PECHR,PECHR|PECHR,Petit Champ,45.79621947,3.233620388,0,1,PECH
PERCA,PERCA|PERCA,Les Perches,45.83015667,3.099562568,0,1,PERC
PERCR,PERCR|PERCR,Les Perches,45.83031188,3.099230088,0,1,PERC
PEROA,PEROA|PEROA,Pérouses,45.73531864,3.104711548,0,1,PERO
PEROR,PEROR|PEROR,Pérouses,45.73516718,3.104892987,0,1,PERO
PEUPA,PEUPA|PEUPA,Peuplier,45.7484237,3.110497458,0,1,PEUP
PEUPR,PEUPR|PEUPR,Peuplier,45.74843314,3.110433338,0,1,PEUP
PISTA,PISTA|PISTA,Les Pistes,45.79894081,3.113381876,0,1,PIST
PISTB,PISTB|PISTB,Les Pistes,45.79752,3.112300018,0,1,PIST
PISTR,PISTR|PISTR,Les Pistes,45.79897679,3.113382398,0,1,PIST
PISTS,PISTS|PISTS,Les Pistes,45.79796,3.113070018,0,1,PIST
PLAIA,PLAIA|PLAIA,La Plaine,45.81178845,3.114734128,0,1,PLAI
PLAIB,PLAIB|PLAIB,La Plaine,45.81164762,3.114281828,0,1,PLAI
PLAIR,PLAIR|PLAIR,La Plaine,45.81176654,3.114860075,0,1,PLAI
PLAIS,PLAIS|PLAIS,La Plaine,45.81165484,3.114539248,0,1,PLAI
PLATA,PLATA|PLATA,Les Plats,45.76485427,3.093052788,0,1,PLAT
PLATR,PLATR|PLATR,Les Plats,45.76465851,3.092728728,0,1,PLAT
PLVEA,PLVEA|PLVEA,Pl. de Verdun,45.76538246,3.082265872,0,1,PLVE
PLVER,PLVER|PLVER,Pl. de Verdun,45.76538071,3.082943038,0,1,PLVE
POELA,POELA|POELA,Poëlade,45.74366403,3.178099378,0,1,POEL
POELR,POELR|POELR,Poëlade,45.74423637,3.177362798,0,1,POEL
POMEA,POMEA|POMEA,Pommeraie,45.72718384,3.145911688,0,1,POME
POMER,POMER|POMER,Pommeraie,45.72703981,3.145922418,0,1,POME
PONAA,PONAA|PONAA,Pont de Naud,45.77345756,3.095387238,0,1,PONA
PONAR,PONAR|PONAR,Pont de Naud,45.77338273,3.095237034,0,1,PONA
PONAS,PONAS|PONAS,Pont de Naud,45.77325,3.094210018,0,1,PONA
PONEA,PONEA|PONEA,Pont Neuf,45.79069161,3.059223388,0,1,PONE
PONER,PONER|PONER,Pont Neuf,45.7913202,3.059411698,0,1,PONE
PONTA,PONTA|PONTA,Le Pont,45.77353867,3.120313357,0,1,PONT
PONTR,PONTR|PONTR,Le Pont,45.77354668,3.120454899,0,1,PONT
POROA,POROA|POROA,Port Royal,45.77013007,3.101841807,0,1,PORO
POROR,POROR|POROR,Port Royal,45.77046678,3.101280809,0,1,PORO
PORTA,PORTA|PORTA,Portefort,45.79900992,3.117691978,0,1,PORT
PORTR,PORTR|PORTR,Portefort,45.79892895,3.117690828,0,1,PORT
POSAA,POSAA|POSAA,Pont de Sarliève,45.75693192,3.149439114,0,1,POSA
POSAS,POSAS|POSAS,Pont de Sarliève,45.75598124,3.149739521,0,1,POSA
POSAB,POSAB|POSAB,Pont de Sarliève,45.75603364,3.149589318,0,1,POSA
POSAR,POSAR|POSAR,Pont de Sarliève,45.756887,3.149449843,0,1,POSA
SARLA,SARLA|SARLA,Sarliève,45.74458688,3.15444948,0,1,SARL
POSTA,POSTA|POSTA,Poste,45.76591328,3.056468538,0,1,POST
POSTR,POSTR|POSTR,Poste,45.76592227,3.056468648,0,1,POST
POURA,POURA|POURA,Pourliat,45.74625039,3.094069468,0,1,POUR
POURR,POURR|POURR,Pourliat,45.74611484,3.094157548,0,1,POUR
POVAA,POVAA|POVAA,Pont de Vallières,45.75815156,3.080904188,0,1,POVA
POVAR,POVAR|POVAR,Pont de Vallières,45.75830356,3.081047638,0,1,POVA
POVAS,POVAS|POVAS,Pont de Vallières,45.75874166,3.081464862,0,1,POVA
PRATA,PRATA|PRATA,Prat,45.74591377,3.109151428,0,1,PRAT
PRATR,PRATR|PRATR,Prat,45.74578889,3.108995468,0,1,PRAT
PRCIA,PRCIA|PRCIA,Percières,45.75601328,3.087211778,0,1,PRCI
PRCIR,PRCIR|PRCIR,Percières,45.75706808,3.086891978,0,1,PRCI
PRDLA,PRDLA|PRDLA,Pierre-Joseph Proudhon,45.77318513,3.098451471,0,1,PRDL
PRDLR,PRDLR|PRDLR,Pierre-Joseph Proudhon,45.77327632,3.098272748,0,1,PRDL
PREGA,PREGA|PREGA,Préguille,45.73908859,3.059959788,0,1,PREG
PREGR,PREGR|PREGR,Préguille,45.73939472,3.059925253,0,1,PREG
PREVA,PREVA|PREVA,Jacques Prévert,45.73234365,3.063699738,0,1,PREV
PREVR,PREVR|PREVR,Jacques Prévert,45.7313444,3.063789314,0,1,PREV
PRMAA,PRMAA|PRMAA,1er Mai,45.78538472,3.101620692,0,1,PMAI
PRMAB,PRMAB|PRMAB,1er Mai,45.78464233,3.100539023,0,1,PMAI
PRMAR,PRMAR|PRMAR,1er Mai,45.78533983,3.10154559,0,1,PMAI
PRMAS,PRMAS|PRMAS,1er Mai,45.78458424,3.101142628,0,1,PMAI
PRUNA,PRUNA|PRUNA,Pruniers,45.79474788,3.101605398,0,1,PRUN
PRUNR,PRUNR|PRUNR,Pruniers,45.79522162,3.102062158,0,1,PRUN
PTDAA,PTDAA|PTDAA,"Pont d'Allier",45.79516417,3.258414667,0,1,PTDA
PTDAR,PTDAR|PTDAR,"Pont d'Allier",45.7943016,3.258271587,0,1,PTDA
PUGEA,PUGEA|PUGEA,Puget,45.76118839,3.100303568,0,1,PUGE
PUGER,PUGER|PUGER,Puget,45.76107912,3.100494878,0,1,PUGE
PUYOA,PUYOA|PUYOA,Puyou,45.79504175,3.079242378,0,1,PUYO
PUYOR,PUYOR|PUYOR,Puyou,45.79503411,3.079036471,0,1,PUYO
QUROA,QUROA|QUROA,Quatre Routes,45.7850348,3.064434438,0,1,QURO
QUROB,QUROB|QUROB,Quatre Routes,45.78596455,3.064311164,0,1,QURO
QUROR,QUROR|QUROR,Quatre Routes,45.78579624,3.064946048,0,1,QURO
RABAA,RABAA|RABAA,Rabanesse,45.76813609,3.086657139,0,1,RABA
RABAR,RABAR|RABAR,Rabanesse,45.7675216,3.087060146,0,1,RABA
RADIA,RADIA|RADIA,Raye Dieu,45.76860989,3.104430421,0,1,RADI
RADIR,RADIR|RADIR,Raye Dieu,45.76870947,3.104341819,0,1,RADI
RCHFA,RCHFA|RCHFA,Rochefeuille,45.76580151,3.10855635,0,1,RCHF
RCHFR,RCHFR|RCHFR,Rochefeuille,45.76586643,3.108274458,0,1,RCHF
REBRR,REBRR|REBRR,René Brut,45.75275027,3.088118358,0,1,REBR
RECAA,RECAA|RECAA,René Cassin,45.79955355,3.248647716,0,1,RECA
RECAR,RECAR|RECAR,René Cassin,45.79941494,3.247591871,0,1,RECA
REDOA,REDOA|REDOA,Redon,45.72313445,3.067277616,0,1,REDO
REDOR,REDOR|REDOR,Redon,45.72290896,3.067364542,0,1,REDO
REGER,REGER|REGER,Regensburg,45.77058965,3.077562581,0,1,REGE
RENOA,RENOA|RENOA,Renoux,45.76445949,3.055883903,0,1,RENO
RENOR,RENOR|RENOR,Renoux,45.7644469,3.055926579,0,1,RENO
REPUR,REPUR|REPUR,République,45.79421056,3.16230621,0,1,REPU
RESIA,RESIA|RESIA,Résistance,45.75029179,3.091143488,0,1,RESI
RESIR,RESIR|RESIR,Résistance,45.75038,3.090630018,0,1,RESI
RESIS,RESIS|RESIS,Résistance,45.75088545,3.091164464,0,1,RESI
RIVIA,RIVIA|RIVIA,Rivière,45.76832844,3.07800781,0,1,RIVI
RIVIR,RIVIR|RIVIR,Rivière,45.76856325,3.078060168,0,1,RIVI
ROBEA,ROBEA|ROBEA,Route de Berzet,45.72789791,3.063885132,0,1,ROBE
ROBER,ROBER|ROBER,Route de Berzet,45.72875006,3.064281777,0,1,ROBE
ROBRA,ROBRA|ROBRA,Roches Brunes,45.7558989,3.084470647,0,1,ROBR
ROBRR,ROBRR|ROBRR,Roches Brunes,45.75620323,3.084361008,0,1,ROBR
ROCHA,ROCHA|ROCHA,Les Roches,45.74818419,3.076605719,0,1,ROCH
ROCHR,ROCHR|ROCHR,Les Roches,45.74825379,3.076966498,0,1,ROCH
RODIR,RODIR|RODIR,Rodolphe Diesel,45.77972892,3.136886158,0,1,RODI
ROGER,ROGER|ROGER,ROMAGNAT Gergovia,45.72639908,3.101260068,0,1,ROGE
RONZA,RONZA|RONZA,Ronzières,45.7792121,3.124714578,0,1,RONZ
HERMA,HERMA|HERMA,"L'Hermitage",45.76521,3.125410009,0,1,HERM
RONZR,RONZR|RONZR,Ronzières,45.77893641,3.126819398,0,1,RONZ
ROPAB,ROPAB|ROPAB,ROYAT Pl. Allard,45.76723566,3.056498678,0,1,ROPA
ROPAR,ROPAR|ROPAR,ROYAT Pl. Allard,45.76794818,3.056225164,0,1,ROPA
ROPAA,ROPAA|ROPAA,ROYAT Pl. Allard,45.76795,3.056050009,0,1,ROPA
ROPAS,ROPAS|ROPAS,ROYAT Pl. Allard,45.76737993,3.056449148,0,1,ROPA
PEGAA,PEGAA|PEGAR,PÉRIGNAT-ÈS-ALLIER La Garde,45.72862,3.243060009,0,1,PEGA
ROPEA,ROPEA|ROPER,ROYAT AvanC-Breuil,45.76572761,3.041759828,0,1,ROPE
ROPER,ROPER|ROPER,ROYAT AvanC-Breuil,45.76572761,3.041759821,0,1,ROPE
ROPMA,ROPMA|ROPMA,Pl. François Mitterrand,45.72992264,3.100422536,0,1,ROPM
ROPMR,ROPMR|ROPMR,Pl. François Mitterrand,45.72944776,3.100133323,0,1,ROPM
ROSEA,ROSEA|ROSEA,Roseraie,45.73668029,3.098974448,0,1,ROSE
ROSER,ROSER|ROSER,Roseraie,45.73605877,3.099081467,0,1,ROSE
ROSSA,ROSSA|ROSSA,Rossignol,45.7850653,3.070813248,0,1,ROSS
VALOR,VALOR|VALOR,Vallon,45.78719,3.068640018,0,1,VALO
ROUSA,ROUSA|ROUSA,Roussillon,45.75300935,3.131103533,0,1,ROUS
ROUSB,ROUSB|ROUSB,Roussillon,45.7526,3.132810018,0,1,ROUS
ROUSR,ROUSR|ROUSR,Roussillon,45.75308264,3.131345088,0,1,ROUS
ROUVA,ROUVA|ROUVA,Rouvier,45.80645452,3.114530019,0,1,ROUV
ROUVR,ROUVR|ROUVR,Rouvier,45.80638219,3.114580468,0,1,ROUV
SAALA,SAALA|SAALA,Salvador Allende,45.77300532,3.116795828,0,1,SAAL
SAALR,SAALR|SAALR,Salvador Allende,45.7729655,3.117348101,0,1,SAAL
SABAA,SABAA|SABAA,"SAYAT Bel'Air",45.8314156,3.054545988,0,1,SABA
SABAR,SABAR|SABAR,"SAYAT Bel'Air",45.83147833,3.054585418,0,1,SABA
SACHA,SACHA|SACHA,Saulzet Le Chaud,45.71329105,3.071513693,0,1,SACH
SACHR,SACHR|SACHR,Saulzet Le Chaud,45.71413576,3.070292019,0,1,SACH
SACOA,SACOA|SACOA,Salins Pierre de Coubertin,45.76972592,3.083001949,0,1,SACO
SACOR,SACOR|SACOR,Salins Pierre de Coubertin,45.76971607,3.083130377,0,1,SACO
SACRA,SACRA|SACRA,Sacré Coeur,45.77190435,3.098922298,0,1,SACR
SACRR,SACRR|SACRR,Sacré Coeur,45.77185954,3.098895978,0,1,SACR
SAETA,SAETA|SAETA,"Sable d'Etampes",45.76775093,3.064501608,0,1,SAET
SAETR,SAETR|SAETR,"Sable d'Etampes",45.76766063,3.064551848,0,1,SAET
SAPAA,SAPAA|SAPAA,Salins Pasteur,45.77161865,3.082500498,0,1,SAPA
SAPAR,SAPAR|SAPAR,Salins Pasteur,45.77163148,3.081922122,0,1,SAPA
SARDA,SARDA|SARDA,Victorien Sardou,45.80778298,3.122743861,0,1,SARD
LAGOA,LAGOA|LAGOA,La Gobe,45.76708888,3.239389675,0,1,LAGO
LAGOR,LAGOR|LAGOR,La Gobe,45.76619077,3.23870303,0,1,LAGO
SARRR,SARRR|SARRR,La Sarre,45.76940726,3.115382088,0,1,SARR
SAUTA,SAUTA|SAUTA,Sauzettes,45.7509556,3.124207339,0,1,SAUT
SAUTR,SAUTR|SAUTR,Sauzettes,45.75071891,3.123317188,0,1,SAUT
SAVAA,SAVAA|SAVAA,Savarounes,45.77928161,3.062275318,0,1,SAVA
SAVAR,SAVAR|SAVAR,Savarounes,45.778948,3.062386638,0,1,SAVA
SAVEA,SAVEA|SAVEA,St Verny,45.73945623,3.106182658,0,1,SAVE
SAVER,SAVER|SAVER,St Verny,45.73921386,3.106102178,0,1,SAVE
SERVA,SERVA|SERVA,La Serve,45.7274804,3.091704592,0,1,SERV
SERVR,SERVR|SERVR,La Serve,45.72740809,3.091754986,0,1,SERV
AIRUR,AIRUR|AIRUR,Aimé Rudel,45.77666,3.180020018,0,1,AIRU
AIRUA,AIRUA|AIRUA,Aimé Rudel,45.77683,3.179490018,0,1,AIRU
SJDOA,SJDOA|SJDOA,St Jacques Dolet,45.76484358,3.089035767,0,1,SJDO
SJDOR,SJDOR|SJDOR,St Jacques Dolet,45.76488119,3.089042388,0,1,SJDO
SJLOA,SJLOA|SJLOA,St Jacques Loucheur,45.76125091,3.094689864,0,1,SJLO
SJLOB,SJLOB|SJLOB,St Jacques Loucheur,45.76129951,3.094520738,0,1,SJLO
SJLOR,SJLOR|SJLOR,St Jacques Loucheur,45.76122846,3.094625491,0,1,SJLO
SJLOS,SJLOS|SJLOS,St Jacques Loucheur,45.7611631,3.094737373,0,1,SJLO
SOGRA,SOGRA|SOGRA,Sounely Gravins,45.73957675,3.140363058,0,1,SOGR
SOGRR,SOGRR|SOGRR,Sounely Gravins,45.73955858,3.140388484,0,1,SOGR
SOULA,SOULA|SOULA,René Soulet,45.77634833,3.108241392,0,1,SOUL
SOULR,SOULR|SOULR,René Soulet,45.77634621,3.108549947,0,1,SOUL
SPORA,SPORA|SPORA,ROMAGNAT Les Sports,45.73488129,3.102881038,0,1,SPOR
SPORR,SPORR|SPORR,ROMAGNAT Les Sports,45.73486015,3.102618473,0,1,SPOR
STJAA,STJAA|STJAA,St Jacques,45.75726125,3.096971528,0,1,STJA
STJAR,STJAR|STJAR,St Jacques,45.75717346,3.096648988,0,1,STJA
STMAA,STMAA|STMAA,St Martin,45.75024444,3.121691099,0,1,STMA
STMAR,STMAR|STMAR,St Martin,45.75021482,3.120778211,0,1,STMA
STMMA,STMMA|STMMA,Stade M. Michelin,45.78774141,3.10634138,0,1,STMM
STMMR,STMMR|STMMR,Stade M. Michelin,45.78773393,3.106352108,0,1,STMM
STMUA,STMUA|STMUA,Stade P. Marcombes,45.7613734,3.08213032,0,1,STMU
STMUB,STMUB|STMUB,Stade P. Marcombes,45.76182453,3.083293328,0,1,STMU
STMUR,STMUR|STMUR,Stade P. Marcombes,45.76084672,3.08209421,0,1,STMU
STRAA,STRAA|STRAA,St Rames,45.77299699,3.102305941,0,1,STRA
STRAR,STRAR|STRAR,St Rames,45.77289733,3.10240741,0,1,STRA
SULLA,SULLA|SULLA,Sully,45.79248533,3.0739604,0,1,SULL
SULLR,SULLR|SULLR,Sully,45.7924744,3.074256067,0,1,SULL
TAMAA,TAMAA|TAMAR,Tamaris,45.78794085,3.063045378,0,1,TAMA
TAMAR,TAMAR|TAMAR,Tamaris,45.78794085,3.063045378,0,1,TAMA
TECHA,TECHA|TECHA,Teilhard de Chardin,45.77603966,3.061345408,0,1,TECH
TECHR,TECHR|TECHR,Teilhard de Chardin,45.77559062,3.062612378,0,1,TECH
TEYTA,TEYTA|TEYTA,Les Teytos,45.72488587,3.08549027,0,1,TEYT
THERA,THERA|THERA,Thermes,45.77022467,3.058281559,0,1,THER
THERR,THERR|THERR,Thermes,45.77012364,3.05827083,0,1,THER
THTHA,THTHA|THTHA,Thévenot Thibaud,45.7885017,3.08993122,0,1,THTH
THTHR,THTHR|THTHR,Thévenot Thibaud,45.78836641,3.089980809,0,1,THTH
TILLA,TILLA|TILLA,Tilleuls,45.72529076,3.088180536,0,1,TILL
TILLR,TILLR|TILLR,Tilleuls,45.72531784,3.088168059,0,1,TILL
TRAVA,TRAVA|TRAVA,Traversin,45.78343236,3.063191618,0,1,TRAV
TRAVR,TRAVR|TRAVR,Traversin,45.78328017,3.063073878,0,1,TRAV
TRCHR,TRCHA|TRCHR,Trémonteix Charcot,45.79258542,3.070995229,0,1,TRCH
TRCHB,TRCHB|TRCHB,Trémonteix Charcot,45.793053,3.069717009,0,1,TRCH
TRIOA,TRIOA|TRIOA,Trioux,45.80239646,3.117174038,0,1,TRIO
TRIOR,TRIOR|TRIOR,Trioux,45.80217868,3.117209691,0,1,TRIO
VALLR,VALLR|VALLR,Vallières,45.75915812,3.083784158,0,1,VALL
VECAA,VECAA|VECAA,Verger du Caire,45.71811953,3.186661657,0,1,VECA
VECAR,VECAR|VECAR,Verger du Caire,45.71818839,3.187073727,0,1,VECA
VEGNA,VEGNA|VEGNA,Les Vergnes,45.81278736,3.127601648,0,1,VEGN
VEGNR,VEGNR|VEGNR,Les Vergnes,45.81273302,3.127652319,0,1,VEGN
VERGA,VERGA|VERGA,Vergers,45.7560299,3.064166726,0,1,VERG
VERGR,VERGR|VERGR,Vergers,45.75642698,3.063979188,0,1,VERG
VERTR,VERTR|VERTR,Vertaizon,45.77463232,3.101300107,0,1,VERT
VERTS,VERTS|VERTS,Vertaizon,45.774688,3.101320018,0,1,VERT
ARFAR,ARFAR|ARFAR,Armand Fallières,45.7905,3.066390009,0,1,ARFA
VGNEA,VGNEA|VGNEA,Les Vignes,45.8026424,3.106663245,0,1,VGNE
VGNEB,VGNEB|VGNEB,Les Vignes,45.80249281,3.107210415,0,1,VGNE
VGNER,VGNER|VGNER,Les Vignes,45.80261285,3.106667336,0,1,VGNE
VGNES,VGNES|VGNES,Les Vignes,45.80189226,3.106785898,0,1,VGNE
VIGEA,VIGEA|VIGEA,Dr Vigenaud,45.76359239,3.098717222,0,1,VIGE
VIGER,VIGER|VIGER,Dr Vigenaud,45.76399014,3.098439923,0,1,VIGE
VILLA,VILLA|VILLA,Villars RN,45.78181582,3.03877117,0,1,VILL
LYPBA,LYPBA|LYPBA,Lycée Pierre Boulanger,45.79081619,3.245585578,0,1,LYPB
VOLNA,VOLNA|VOLNA,Volney,45.76371817,3.079938218,0,1,VOLN
VOLNR,VOLNR|VOLNR,Volney,45.76368184,3.079989148,0,1,VOLN
VOLTA,VOLTA|VOLTA,Voltaire INSPÉ,45.7685141,3.075773396,0,1,VOLT
VOLTR,VOLTR|VOLTR,Voltaire INSPÉ,45.76822491,3.074599639,0,1,VOLT
HEBER,HEBER|HEBER,Hector Berlioz,45.76943666,3.076402869,0,1,HEBE
VOROA,VOROA|VOROA,Voie Romaine,45.775408,3.05462551,0,1,VORO
VOROR,VOROR|VOROR,Voie Romaine,45.77534387,3.054804688,0,1,VORO
WILSA,WILSA|WILSA,Wilson,45.72999163,3.06428533,0,1,WILS
WILSR,WILSR|WILSR,Wilson,45.73007227,3.064337782,0,1,WILS
ARTIA,ARTIA|ARTIA,Artière,45.75309035,3.117413305,0,1,ARTI
LAPTR,LAPTA|LAPTR,CÉBAZAT Porte de Troyes,45.8411406,3.129054326,0,1,LAPT
ADCIA,ADCIA|ADCIA,André Citroën,45.83695,3.125360009,0,1,ADCI
POTUA,POTUA|POTUA,Porte de Turin,45.84083113,3.125121618,0,1,POTU
POTUR,POTUR|POTUR,Porte de Turin,45.84075097,3.125004618,0,1,POTU
BLPAA,BLPAA|BLPAA,Blaise Pascal,45.79475555,3.162828873,0,1,BLPA
GAPDA,GAPDA|GAPDA,ORCINES Gare du Panoramique des Dômes,45.77164694,2.985100051,0,1,GAPD
GAPDR,GAPDA|GAPDR,ORCINES Gare du Panoramique des Dômes,45.77169184,2.985113436,0,1,GAPD
LAFLA,LAFLA|LAFLA,"La Font de L'Arbre",45.76860935,3.006006261,0,1,LAFL
LAFLR,LAFLR|LAFLR,"La Font de L'Arbre",45.76866802,3.005967754,0,1,LAFL
BOISA,BOISA|BOISA,Boisvallon,45.74685799,3.063377319,0,1,BOIS
BOISR,BOISR|BOISR,Boisvallon,45.74820927,3.063112428,0,1,BOIS
PARLB,PARLB|PARLB,Parlette,45.77628003,3.118128007,0,1,PARL
SUREA,SUREA|SUREA,Les Sureaux,45.77306517,3.113351002,0,1,SURE
SURER,SURER|SURER,Les Sureaux,45.77302491,3.113967568,0,1,SURE
CRNER,CRNER|CRNER,Croix de Neyrat,45.81433479,3.106870058,0,1,CRNE
CHAMR,CHAMR|CHAMR,Champratel,45.81491877,3.112230798,0,1,CHAM
CHAMS,CHAMS|CHAMS,Champratel,45.81475222,3.112897518,0,1,CHAM
CHAMT,CHAMS|CHAMT,Champratel,45.81475,3.112460009,0,1,CHAM
CRNEB,CRNEB|CRNEB,Croix de Neyrat,45.81386663,3.106914956,0,1,CRNE
STGMA,STGMA|STGMA,Stade G. Montpied,45.81310512,3.121072072,0,1,STGM
STGMR,STGMR|STGMR,Stade G. Montpied,45.81310301,3.121070077,0,1,STGM
3377858634323577,33CBA,CENTRE BOURG,45.85134528,3.180224407,0,1,CEBO
3377858634323581,33LIA,S.BEAUZIRE LILAS,45.84890376,3.17463789,0,1,STBL
ARBRA,ARBRA|ARBRA,CHAMALIÈRES Aristide Briand,45.77382778,3.063913398,0,1,ARBR
ARBRR,ARBRR|ARBRR,CHAMALIÈRES Aristide Briand,45.77397391,3.063887375,0,1,ARBR
CECHR,CECHA|CECHR,CÉBAZAT CHU L. Michel,45.83968203,3.091958368,0,1,CECH
CRNES,CRNES|CRNES,Croix de Neyrat,45.81389031,3.107060212,0,1,CRNE
HEBAA,HEBAA|HEBAA,Henri Barbusse,45.78386027,3.084376718,0,1,HEBA
SOLAA,SOLAA|SOLAA,Solayer,45.81029284,3.11112344,0,1,SOLA
SOLAR,SOLAR|SOLAR,Solayer,45.81035652,3.111021411,0,1,SOLA
STGMS,STGMS|STGMS,Stade G. Montpied,45.81295182,3.121173995,0,1,STGM
TRFER,TRFER|TRFER,Les Trois Fées,45.83696234,3.104978817,0,1,TRFE
QUATA,QUATA|QUATA,Quartières,45.84097,3.105340009,0,1,QUAT
VIVIA,VIVIA|VIVIA,Viviani,45.80722736,3.118554811,0,1,VIVI
VIVIB,VIVIB|VIVIB,Viviani,45.80708839,3.119131768,0,1,VIVI
VIVIR,VIVIR|VIVIR,Viviani,45.80713001,3.118321859,0,1,VIVI
VIVIS,VIVIS|VIVIS,Viviani,45.80699899,3.119274991,0,1,VIVI
BIOPA,BIOPA|BIOPA,Biopôle,45.8478001,3.166947838,0,1,BIOP
BIOPR,BIOPR|BIOPR,Biopôle,45.84776488,3.166844318,0,1,BIOP
CEREA,CEREA|CEREA,Ceyre,45.83103334,3.085584507,0,1,CERE
COUMR,COUMR|COUMR,Coumes,45.831468,3.091897011,0,1,COUM
FRADA,FRADA|FRADA,Fradière,45.8285783,3.077249991,0,1,FRAD
FRADR,FRADR|FRADR,Fradière,45.82927781,3.077594033,0,1,FRAD
JARZA,JARZA|JARZA,Jarzy,45.82996922,3.081005233,0,1,JARZ
MALIA,MALIA|MALIA,Malintrat,45.7952667,3.122912309,0,1,MALI
MALIR,MALIR|MALIR,Malintrat,45.7952013,3.123258652,0,1,MALI
PLMOA,PLMOA|PLMOA,Pl. du Montel,45.82697915,3.074152641,0,1,PLMO
PLMOR,PLMOR|PLMOR,Pl. du Montel,45.82706844,3.074256795,0,1,PLMO
STGRA,STGRA|STGRA,Stade Gravanches,45.80188935,3.131767158,0,1,STGR
STGRR,STGRR|STGRR,Stade Gravanches,45.80198749,3.131884346,0,1,STGR
QUBEA,QUBEA|QUBEA,Québec,45.80337318,3.133139328,0,1,QUBE
QUBER,QUBER|QUBER,Québec,45.8032475,3.133098917,0,1,QUBE
ZOGRA,ZOGRA|ZOGRA,Zone des Gravanches,45.80569198,3.137289581,0,1,ZOGR
ZOGRR,ZOGRA|ZOGRR,Zone des Gravanches,45.80569198,3.137289588,0,1,ZOGR
INCRA,INCRA|INCRA,INRAE Crouël,45.77898422,3.142893048,0,1,INCR
INCRR,INCRR|INCRR,INRAE Crouël,45.77884863,3.142981068,0,1,INCR
BOUSA,BOUSA|BOUSA,Boussadet,45.83256541,3.105220548,0,1,BOUS
BOUSR,BOUSR|BOUSR,Boussadet,45.83255545,3.105361984,0,1,BOUS
STGMB,STGMB|STGMB,Stade G. Montpied,45.81294434,3.121324199,0,1,STGM
FOVIA,FOVIA|FOVIA,Fourches Vieilles,45.79205428,3.261319416,0,1,FOVI
FOVIR,FOVIR|FOVIR,Fourches Vieilles,45.79168,3.261340017,0,1,FOVI
TRFEA,TRFEA|TRFEA,Les Trois Fées,45.83700342,3.104870698,0,1,TRFE
3377858634323511,33BPA,BIOPOLE 2,45.85022556,3.170498865,0,1,BIDE
ALAUA,ALAUA|ALAUA,"Les Allées d'Aussandra",45.71392537,3.193956131,0,1,ALAU
ALAUR,ALAUR|ALAUR,"Les Allées d'Aussandra",45.71364492,3.194146174,0,1,ALAU
MTRIA,MTRIA|MTRIA,La Montorière,45.71185043,3.191149807,0,1,MTRI
MTRIR,MTRIR|MTRIR,La Montorière,45.71185991,3.191085747,0,1,MTRI
RTMAA,RTMAA|RTMAA,Route des Martres,45.7170384,3.19099726,0,1,RTMA
RTMAR,RTMAR|RTMAR,Route des Martres,45.71690731,3.190906065,0,1,RTMA
BATAA,BATAA|BATAA,Bâtiment A,45.74612572,3.112341353,0,1,BATA
BATAR,BATAR|BATAR,Bâtiment A,45.74612572,3.112341353,0,1,BATA
BATCA,BATCA|BATCA,AUBIÈRE Le Prat - Bâtiment C,45.7446779,3.110933125,0,1,BATC
BATCR,BATCA|BATCR,AUBIÈRE Le Prat - Bâtiment C,45.7446779,3.110933125,0,1,BATC
BATFA,BATFA|BATFA,Bâtiment F,45.74570409,3.1108576,0,1,BATF
BATFR,BATFR|BATFR,Bâtiment F,45.74570409,3.1108576,0,1,BATF
BLDXA,BLDXA|BLDXA,Les Balladoux,45.8428905,3.118817489,0,1,BLDX
BLDXR,BLDXR|BLDXR,Les Balladoux,45.84293813,3.119602221,0,1,BLDX
CRDIA,CRDIA|CRDIA,Campus RDI,45.84402558,3.123239288,0,1,CRDI
AMMEA,AMMEA|AMMEA,Anne-Marie Menut,45.74656865,3.173478889,0,1,AMME
EMCOR,EMCOR|EMCOR,Emile Coulaudon,45.75480173,3.156304208,0,1,EMCO
AMMER,AMMER|AMMER,Anne-Marie Menut,45.74651477,3.17346522,0,1,AMME
BERTB,BERTB|BERTB,Berthelot,45.78084759,3.06913678,0,1,BERT
BERTS,BERTS|BERTS,Berthelot,45.7807747,3.069277255,0,1,BERT
CLAUA,CLAUA|CLAUA,Joseph Claussat,45.77879858,3.063233318,0,1,CLAU
CLAUR,CLAUR|CLAUR,Joseph Claussat,45.77863722,3.063141168,0,1,CLAU
RICHA,RICHA|RICHA,Richelieu,45.77920649,3.066929025,0,1,RICH
RICHR,RICHR|RICHR,Richelieu,45.77914452,3.066773903,0,1,RICH
CXSGA,CXSGA|CXSGA,Croix St Guillaume,45.74954319,3.240639585,0,1,CXSG
DASPA,DASPA|DASPA,Salle Polyvalente,45.77105357,3.240409997,0,1,DASP
DASPR,DASPR|DASPR,Salle Polyvalente,45.77105357,3.240409997,0,1,DASP
INCHR,INCHR|INCHR,INSPÉ Chamalières,45.77400579,3.072504298,0,1,INCH
INCHA,INCHA|INCHA,INSPÉ Chamalières,45.77408709,3.072453958,0,1,INCH
RPSBA,RPSBA|RPSBA,Rond-Point de St Bonnet,45.72819873,3.23561849,0,1,RPSB
RPSBR,RPSBR|RPSBR,Rond-Point de St Bonnet,45.72824741,3.235731142,0,1,RPSB
LEPUA,LEPUA|LEPUA,"L'Épouvantail",45.72933713,3.232055857,0,1,LEPU
LEPUR,LEPUR|LEPUR,"L'Épouvantail",45.72933713,3.232055857,0,1,LEPU
PALAA,PALAA|PALAA,Palavézy,45.73138268,3.207627659,0,1,PALA
ARSEA,ARSEA|ARSEA,Arsenal,45.79771,3.130470018,0,1,ARSE
ARSER,ARSER|ARSER,Arsenal,45.79755369,3.130353908,0,1,ARSE
LOCTA,LOCTA|LOCTA,Louis Chartoire,45.79719544,3.136471358,0,1,LOCT
LEMAA,LEMAA|LEMAA,Léon Maniez,45.79670481,3.164478838,0,1,LEMA
TRCHS,TRCHS|TRCHS,Trémonteix Charcot,45.79296233,3.0711887,0,1,TRCH
TREYA,TREYA|TREYA,Trémonteix Paul Eychart,45.7931231,3.065840433,0,1,TREY
TREYR,TREYR|TREYR,Trémonteix Paul Eychart,45.7930796,3.066997396,0,1,TREY
RELAR,RELAR|RELAR,René Laennec,45.74435281,3.205802457,0,1,RELA
ELTRA,ELTRA|ELTRA,Elsa Triolet,45.74587,3.209810009,0,1,ELTR
CHLOA,CHLOA|CHLOA,Champlong,45.75878837,3.057750703,0,1,CHLO
BELDR,BELDR|BELDR,Belvédère,45.758079,3.060550009,0,1,BELD
CHLOR,CHLOR|CHLOR,Champlong,45.75908161,3.05691906,0,1,CHLO
PAMZA,PAMZA|PAMZR,Parc de Montjuzet,45.7903,3.070920018,0,1,PAMZ
CHAOR,CHAOR|CHAOR,MALINTRAT Charrots,45.81635469,3.188825421,0,1,1970483750764879
GAMAA,GAMAA|GAMAA,Gamay,45.74931918,3.134259453,0,1,GAMA
ARDEA,ARDEA|ARDEA,Les Ardeliers,45.7906925,3.235073647,0,1,ARDE
ARDER,ARDER|ARDER,Les Ardeliers,45.79071939,3.235086947,0,1,ARDE
BOULA,BOULA|BOULA,La Boule,45.8098,3.241580017,0,1,BOUL
BOULR,BOULR|BOULR,La Boule,45.80966513,3.241868037,0,1,BOUL
LISAA,LISAA|LISAA,La Lissandre,45.78951021,3.225344274,0,1,LISA
LCHLR,LCHLA|LCHLR,Champ Lamet,45.7848161,3.217100519,0,1,LCHL
LISAR,LISAR|LISAR,La Lissandre,45.78951972,3.225280122,0,1,LISA
NIGUA,NIGUA|NIGUA,Les Nigues,45.80624314,3.239161394,0,1,NIGU
NIGUR,NIGUR|NIGUR,Les Nigues,45.80630581,3.239201017,0,1,NIGU
PEYRA,PEYRA|PEYRA,Le Peyron,45.7895229,3.230553183,0,1,PEYR
PEYRR,PEYRR|PEYRR,Le Peyron,45.78957677,3.230566919,0,1,PEYR
PLANA,PLANA|PLANA,Les Plantades,45.80454962,3.235436099,0,1,PLAN
QUARA,QUARA|QUARA,La Quarte,45.80026223,3.243346822,0,1,QUAR
CRBLS,CRBLS|CRBLS,Croix Blanche,45.79910453,3.244614619,0,1,CRBL
QUARR,QUARR|QUARR,La Quarte,45.80036113,3.243343252,0,1,QUAR
GRVOA,GRVOA|GRVOA,Gravouses,45.78455914,3.073918508,0,1,GRVO
CXDAA,CXDAA|CXDAA,Croix Notre-Dame,45.73342431,3.142650118,0,1,CXDA
CXDAR,CXDAR|CXDAR,Croix Notre-Dame,45.73301958,3.142631348,0,1,CXDA
HERLA,HERLA|HERLA,"L'Herbelière",45.7926875,3.239865063,0,1,HERL
GPDCR,GPDCA|GPDCR,Gare de Pont-du-Château,45.78893095,3.238499182,0,1,GPDC
HERLR,HERLR|HERLR,"L'Herbelière",45.79249191,3.239818829,0,1,HERL
CHCHA,CHCHA|CHCHA,Chemin du Cheix,45.75860241,3.238033287,0,1,CHCH
CHCHR,CHCHR|CHCHR,Chemin du Cheix,45.75860241,3.238033287,0,1,CHCH
JEFOA,JEFOA|JEFOA,Jean Fourcade,45.7528865,3.241718326,0,1,JEFO
JEFOR,JEFOR|JEFOR,Jean Fourcade,45.75244041,3.242265003,0,1,JEFO
MAFGA,MAFGA|MAFGA,MUR-SUR-ALLIER Font Grande,45.7556107,3.245682138,0,1,MAFG
MURQA,MURQA|MURQA,"Musée d'Art Roger Quilliot",45.79381203,3.117335217,0,1,MURQ
MURQB,MURQB|MURQB,"Musée d'Art Roger Quilliot",45.79349,3.117460018,0,1,MURQ
MURQR,MURQR|MURQR,"Musée d'Art Roger Quilliot",45.79381176,3.117373799,0,1,MURQ
MURQS,MURQS|MURQS,"Musée d'Art Roger Quilliot",45.7951,3.117550018,0,1,MURQ
PAULR,PAULR|PAULR,Paulines,45.77513069,3.095469778,0,1,PAUL
CEYRS,CEYRS|CEYRS,CEYRAT Mairie,45.73395403,3.064037579,0,1,CEYR
PLARA,PLARA|PLARA,Plaine des Sports,45.73639698,3.065757565,0,1,PLAR
CEBER,CEBER|CEBER,CEYRAT La Beaumière,45.74503473,3.069949159,0,1,CEBE
PLARR,PLARR|PLARR,Plaine des Sports,45.7362468,3.065331598,0,1,PLAR
FACUR,FACUR|FACUR,Faculté,45.77625626,3.091192263,0,1,FACU
CARNA,CARNA|CARNA,Carnot,45.77625252,3.094877618,0,1,CARN
ANFRA,ANFRA|ANFRA,Anatole France,45.77883,3.111850018,0,1,ANFR
LYGER,LYGER|LYGER,Lycée Gergovie,45.78232835,3.118100184,0,1,LYGE
LYGEA,LYGEA|LYGEA,Lycée Gergovie,45.78245928,3.118250388,0,1,LYGE
PATIA,PATIA|PATIA,Patinoire,45.76171,3.126530018,0,1,PATI
PATIR,PATIR|PATIR,Patinoire,45.76168,3.126250018,0,1,PATI
PICUA,PICUA|PICUA,Picou,45.79486,3.230130017,0,1,PICU
PICUR,PICUR|PICUR,Picou,45.7948,3.230340017,0,1,PICU
BEAUR,BEAUR|BEAUR,Beausite,45.76830074,3.061564909,0,1,BEAU
PAGIA,PAGIA|PAGIA,Pasteur Gilbert,45.772824,3.077953018,0,1,PAGI
PAGIR,PAGIR|PAGIR,Pasteur Gilbert,45.77278,3.078002018,0,1,PAGI
TRCHA,TRCHA|TRCHA,Trémonteix Charcot,45.79256672,3.070946949,0,1,TRCH
BEAUA,BEAUA|BEAUA,Beausite,45.76797165,3.062370483,0,1,BEAU
SACAA,SACAA|SACAA,Sablon Carnot,45.77660796,3.090087193,0,1,SACA
SACAR,SACAR|SACAR,Sablon Carnot,45.776579,3.090251018,0,1,SACA
SALAA,SALAA|SALAA,Sablon Lafayette,45.77229389,3.089936989,0,1,SALA
SALAR,SALAR|SALAR,Sablon Lafayette,45.77225273,3.090055006,0,1,SALA
ALVAA,ALVAA|ALVAA,Alexandre Varenne,45.77669775,3.077341336,0,1,ALVA
NEWTA,NEWTA|NEWTA,Newton,45.7854,3.128130018,0,1,NEWT
NEWTR,NEWTR|NEWTR,Newton,45.78535479,3.128120917,0,1,NEWT
ROBOA,ROBOA|ROBOA,Rosa Bonheur,45.73426856,3.183433431,0,1,ROBO
ROBOR,ROBOR|ROBOR,Rosa Bonheur,45.73423,3.183270017,0,1,ROBO
DUCIA,DUCIA|DUCIA,DURTOL Clinique,45.79359157,3.053228277,0,1,DUCI
QUROS,QUROS|QUROS,Quatre Routes,45.7859234,3.064230698,0,1,QURO
GALAC,GALAC|GALAC,Galaxie,45.782679,3.073676009,0,1,GALA
GALAB,GALAB|GALAB,Galaxie,45.78240809,3.074031139,0,1,GALA
GALAS,GALAS|GALAS,Galaxie,45.78181745,3.073547439,0,1,GALA
GALAT,GALAT|GALAT,Galaxie,45.78188,3.073630009,0,1,GALA
GALAA,GALAA|GALAA,Galaxie,45.78262389,3.072019833,0,1,GALA
GALAR,GALAR|GALAR,Galaxie,45.7825111,3.072039359,0,1,GALA
FERAA,FERAA|FERAA,Fernand Raynaud,45.77121146,3.101586849,0,1,FERA
FERAR,FERAR|FERAR,Fernand Raynaud,45.77088324,3.102715033,0,1,FERA
CAMER,CAMER|CAMER,Catherine de Médicis,45.76983675,3.110515659,0,1,CAME
LEDVR,LEDVR|LEDVR,Leonard de Vinci,45.76046,3.135400018,0,1,LEDV
CLSAA,CLSAA|CLSAA,Clermont-Sud-Aubière,45.75911765,3.14431073,0,1,CLSA
CLSAR,CLSAR|CLSAR,Clermont-Sud-Aubière,45.75877333,3.14468624,0,1,CLSA
SARLR,SARLR|SARLR,Sarliève,45.7455078,3.153451699,0,1,SARL
GHZEA,GHZEA|GHZEA,Grande Halle Zénith,45.73912844,3.159695881,0,1,GHZE
GHZER,GHZER|GHZER,Grande Halle Zénith,45.739091,3.159631508,0,1,GHZE
GADCA,GADCA|GADCA,Gare de Cournon,45.73857807,3.169834631,0,1,GADC
GADCR,GADCR|GADCR,Gare de Cournon,45.73851443,3.169920462,0,1,GADC
GETIA,GETIA|GETIA,Germaine Tillion,45.74064473,3.175000566,0,1,GETI
GETIR,GETIR|GETIR,Germaine Tillion,45.74046,3.174940009,0,1,GETI
ALOTA,ALOTA|ALOTA,Alouettes,45.73755221,3.177736419,0,1,ALOT
ALOTR,ALOTR|ALOTR,Alouettes,45.73742865,3.17777397,0,1,ALOT
LLACA,LLACA|LLACA,Lac,45.7328195,3.191866296,0,1,LLAC
LLACT,LLACT|LLACT,Lac,45.73146,3.191460009,0,1,LLAC
LLACB,LLACB|LLACB,Lac,45.73204,3.193470009,0,1,LLAC
LLACR,LLACR|LLACR,Lac,45.73168,3.191080009,0,1,LLAC
SAMPA,SAMPA|SAMPA,Samuel Paty,45.73577,3.193051833,0,1,SAMP
SAMPB,SAMPB|SAMPB,Samuel Paty,45.735694,3.192373009,0,1,SAMP
SAMPS,SAMPS|SAMPS,Samuel Paty,45.735654,3.192411009,0,1,SAMP
SAMPR,SAMPR|SAMPR,Samuel Paty,45.73578123,3.193148392,0,1,SAMP
PLREA,PLREA|PLREA,Pl. de la République,45.73880271,3.196361678,0,1,PLRE
PLRER,PLRER|PLRER,Pl. de la République,45.73887385,3.196656721,0,1,PLRE
GESAA,GESAA|GESAA,George Sand,45.7387166,3.20159735,0,1,GESA
GESAR,GESAR|GESAR,George Sand,45.73871,3.202520009,0,1,GESA
LERIA,LERIA|LERIA,Les Rives,45.73817372,3.206275123,0,1,LERI
LERIR,LERIR|LERIR,Les Rives,45.73811,3.206220009,0,1,LERI
ALMIA,ALMIA|ALMIA,Alice Milliat,45.73965259,3.209724444,0,1,ALMI
ALMIR,ALMIR|ALMIR,Alice Milliat,45.73945622,3.209554249,0,1,ALMI
LYRDA,LYRDA|LYRDA,Lycée René Descartes,45.74305057,3.210138079,0,1,LYRD
LYRDR,LYRDR|LYRDR,Lycée René Descartes,45.74305198,3.21021797,0,1,LYRD
COALA,COALA|COALA,COURNON Allier,45.74541565,3.210291259,0,1,COAL
COALR,COALR|COALR,COURNON Allier,45.74486639,3.210346789,0,1,COAL
ARLMR,ARLMA|ARLMR,ARGNAT Le Mas,45.84420938,3.025786319,0,1,ARLM
ARLMA,ARLMA|ARLMA,ARGNAT Le Mas,45.84420938,3.025786319,0,1,ARLM
SAPCR,SAPCR|SAPCR,SAYAT Pierre Combe,45.83469916,3.047522519,0,1,SAPC
SAPCA,SAPCA|SAPCA,SAYAT Pierre Combe,45.83456243,3.047803919,0,1,SAPC
RODMR,RODMR|RODMR,Roche Demie,45.82799729,3.054449879,0,1,RODM
RODMA,RODMA|RODMA,Roche Demie,45.82819587,3.054349509,0,1,RODM
DOJAR,DOJAR|DOJAR,Docteur Jay,45.82715779,3.050642409,0,1,DOJA
DOJAA,DOJAA|DOJAA,Docteur Jay,45.82775573,3.051409479,0,1,DOJA
LELIR,LELIR|LELIR,Les Littes,45.82184468,3.052812509,0,1,LELI
LELIA,LELIA|LELIA,Les Littes,45.82171165,3.052847394,0,1,LELI
PASNB,PASNB|PASNB,Parc SNCF,45.77712053,3.101293453,0,1,PASN
VALOB,VALOB|VALOB,Vallon,45.78759479,3.068405597,0,1,VALO
VALOS,VALOS|VALOS,Vallon,45.78742223,3.068109116,0,1,VALO
VALOA,VALOA|VALOA,Vallon,45.78698,3.069480009,0,1,VALO
PAMZR,PAMZR|PAMZR,Parc de Montjuzet,45.7903,3.070920018,0,1,PAMZ
BOBEA,BOBEA|BOBEA,Boisbeaumont,45.7549,3.096290009,0,1,BOBE
RESIB,RESIB|RESIB,Résistance,45.75084,3.091080009,0,1,RESI
THGCR,THGCR|THGCR,Theix Grand Champ,45.70421,3.042190018,0,1,THGC
THGCA,THGCA|THGCA,Theix Grand Champ,45.70489059,3.041625041,0,1,THGC
THCEA,THCEA|THCEA,Theix Centre,45.70611,3.022460009,0,1,THCE
THCES,THCES|THCES,Theix Centre,45.70551,3.022160018,0,1,THCE
THCER,THCER|THCER,Theix Centre,45.70589,3.021930009,0,1,THCE
FOSBR,FOSBR|FOSBR,Fontfreyde sous le Bois,45.70082949,3.00591411,0,1,FOSB
FOSBA,FOSBA|FOSBA,Fontfreyde sous le Bois,45.70088943,3.005581516,0,1,FOSB
FOBSA,FOBSA|FOBSA,Fontfreyde Bascule,45.70313,3.002690009,0,1,FOBS
FOBSR,FOBSR|FOBSR,Fontfreyde Bascule,45.70300993,3.002775916,0,1,FOBS
INTHR,INTHR|INTHR,INRAE Theix,45.71206048,3.016723412,0,1,INTH
INTHA,INTHA|INTHA,INRAE Theix,45.7121,3.016810018,0,1,INTH
GECER,GECER|GECER,St Genès Centre,45.71936802,3.017281303,0,1,GECE
GECEB,GECEB|GECEB,St Genès Centre,45.71915369,3.019217652,0,1,GECE
GECEA,GECEA|GECEA,St Genès Centre,45.71939424,3.017088184,0,1,GECE
PAFOA,PAFOA|PAFOA,Pardon Le Four,45.7187051,3.004599819,0,1,PAFO
PAFOB,PAFOB|PAFOB,Pardon Le Four,45.718383,3.004170674,0,1,PAFO
PAFOR,PAFOR|PAFOR,Pardon Le Four,45.71863019,3.004739293,0,1,PAFO
CHTRA,CHTRA|CHTRA,Chatrat,45.725639,3.009542009,0,1,CHTR
CHTRR,CHTRR|CHTRR,Chatrat,45.72563,3.009690009,0,1,CHTR
THEDR,THEDR|THEDR,Thèdes,45.735875,3.022562009,0,1,THED
THEDB,THEDB|THEDB,Thèdes,45.7357803,3.023293518,0,1,THED
THEDA,THEDA|THEDA,Thèdes,45.73570635,3.02302123,0,1,THED
MACER,MACER|MACER,Manson Centre,45.74406,3.011870009,0,1,MACE
MACEA,MACEA|MACEA,Manson Centre,45.74402908,3.012104639,0,1,MACE
MACDR,MACDR|MACDR,Charade,45.74827046,3.02846075,0,1,MACD
MACDA,MACDA|MACDA,Charade,45.74828918,3.028525123,0,1,MACD
OCLES,OCLES|OCLES,"L'Oclède",45.75843678,3.055105049,0,1,OCLE
OCLEB,OCLEB|OCLEB,"L'Oclède",45.75860628,3.055354088,0,1,OCLE
BELDA,BELDA|BELDA,Belvédère,45.75815,3.060670009,0,1,BELD
LSLAA,LSLAA|LSLAA,Louis Landouzy,45.76709759,3.058386628,0,1,LSLA
LSLAR,LSLAR|LSLAR,Louis Landouzy,45.76726604,3.058774498,0,1,LSLA
PEGAR,PEGAR|PEGAR,PÉRIGNAT-ÈS-ALLIER La Garde,45.72862,3.243060009,0,1,PEGA
VADAA,VADAA|VADAA,"Val d'Azur",45.72645741,3.239743718,0,1,VADA
VADAR,VADAR|VADAR,"Val d'Azur",45.72649,3.239700009,0,1,VADA
PALAR,PALAR|PALAR,Palavézy,45.73118725,3.207303389,0,1,PALA
RIBEA,RIBEA|RIBEA,Ribeyre,45.72869518,3.203795369,0,1,RIBE
RIBER,RIBER|RIBER,Ribeyre,45.72856232,3.203523499,0,1,RIBE
LOUBA,LOUBA|LOUBA,Loubatières,45.72639784,3.200688969,0,1,LOUB
LOUBR,LOUBR|LOUBR,Loubatières,45.72623769,3.200455219,0,1,LOUB
ALFEA,ALFEA|ALFEA,Alice Ferrières,45.74090305,3.20007922,0,1,ALFE
ALFER,ALFER|ALFER,Alice Ferrières,45.74104066,3.200122047,0,1,ALFE
COMAA,COMAA|COMAA,Cournon Mairie,45.743,3.201080017,0,1,COMA
COMAR,COMAR|COMAR,Cournon Mairie,45.74296791,3.201051777,0,1,COMA
RELAA,RELAA|RELAA,René Laennec,45.74447,3.205810017,0,1,RELA
ELTRR,ELTRR|ELTRR,Elsa Triolet,45.7458,3.209950009,0,1,ELTR
BONOA,BONOA|BONOA,Bonne Nouvelle,45.76514,3.201020017,0,1,BONO
BONOR,BONOR|BONOR,Bonne Nouvelle,45.76513,3.201130017,0,1,BONO
FONEA,FONEA|FONEA,Fontanille,45.77501,3.204620009,0,1,FONE
FONER,FONER|FONER,Fontanille,45.77489,3.204560009,0,1,FONE
MAFGR,MAFGA|MAFGR,MUR-SUR-ALLIER Font Grande,45.7556107,3.245682138,0,1,MAFG
CHAMC,CHAMC|CHAMC,Champratel,45.81483,3.112124009,0,1,CHAM
CRDIR,CRDIA|CRDIR,Campus RDI,45.84402558,3.123239288,0,1,CRDI
ADCIR,ADCIR|ADCIR,André Citroën,45.83697,3.125260009,0,1,ADCI
SANCA,SANCA|SANCA,Sancy,45.8351,3.138750009,0,1,SANC
SANCR,SANCR|SANCR,Sancy,45.83513,3.138860009,0,1,SANC
CHMTA,CHMTA|CHMTA,Champarmont,45.838655,3.140109018,0,1,CHMT
CHMTR,CHMTR|CHMTR,Champarmont,45.838605,3.140219018,0,1,CHMT
GAGEA,GAGEA|GAGEA,Gare de Gerzat,45.8337,3.143520009,0,1,GAGE
GAGER,GAGER|GAGER,Gare de Gerzat,45.83371,3.143370009,0,1,GAGE
NEBOA,NEBOA|NEBOA,Neige Bœuf,45.83727,3.149860009,0,1,NEBO
NEBOR,NEBOR|NEBOR,Neige Bœuf,45.8373,3.150080009,0,1,NEBO
GEDOA,GEDOA|GEDOA,GERZAT Donnavignat,45.84134,3.156530009,0,1,GEDO
GEDOR,GEDOR|GEDOR,GERZAT Donnavignat,45.84124,3.156597009,0,1,GEDO
EUVGA,EUVGA|EUVGA,Europe V.G.E.,45.77513798,3.063043549,0,1,EUVG
BEORR,BEORR|BEORR,Bellevue Orcines,45.78142674,3.032301682,0,1,BEOR
BEORA,BEORA|BEORA,Bellevue Orcines,45.78144171,3.031067866,0,1,BEOR
BAPIR,BAPIR|BAPIR,La Baraque Pignol,45.7810227,3.027194756,0,1,BAPI
BAPIA,BAPIA|BAPIA,La Baraque Pignol,45.78103,3.026120018,0,1,BAPI
BARQR,BARQR|BARQR,La Baraque,45.78150156,3.021583575,0,1,BARQ
BARQA,BARQA|BARQA,La Baraque,45.78153,3.021510018,0,1,BARQ
CHVAA,CHVAA|CHVAA,Chez Vasson,45.78539594,3.016900429,0,1,CHVA
CHVAR,CHVAR|CHVAR,Chez Vasson,45.78553435,3.016433725,0,1,CHVA
ORBOR,ORBOR|ORBOR,Orcines Bourg,45.78395,3.013410018,0,1,ORBO
ORBOA,ORBOA|ORBOA,Orcines Bourg,45.78397,3.013240018,0,1,ORBO
COSAR,COSAR|COSAR,Collège Ste Anne,45.782019,3.012185009,0,1,COSA
COSAA,COSAA|COSAA,Collège Ste Anne,45.78206,3.011990009,0,1,COSA
LAFLB,LAFLB|LAFLB,"La Font de l'Arbre",45.76985,3.008017808,0,1,LAFL
CEPAA,CEPAA|CEPAR,LE CENDRE Pandières,45.7118,3.184430009,0,1,CEPA
CEPAR,CEPAR|CEPAR,LE CENDRE Pandières,45.71185,3.184380009,0,1,CEPA
MAREA,MAREA|MAREA,Maronne,45.71104,3.187760009,0,1,MARE
MARER,MARER|MARER,Maronne,45.7111,3.188340009,0,1,MARE
POINA,POINA|POINA,Pointilloux,45.72858443,3.187167057,0,1,POIN
POINR,POINR|POINR,Pointilloux,45.72872,3.187270009,0,1,POIN
BOORA,BOORA|BOORA,"Boutons d'Or",45.73150145,3.185504088,0,1,BOOR
BOORR,BOORR|BOORR,"Boutons d'Or",45.73146775,3.185445079,0,1,BOOR
COGEA,COGEA|COGEA,COURNON Le Gergovie,45.73175982,3.196270469,0,1,COGE
COGER,COGER|COGER,COURNON Le Gergovie,45.73109946,3.196510269,0,1,COGE
CHTIR,CHTIR|CHTIR,Charles Tillon,45.77494772,3.127237849,0,1,CHTI
CHTIA,CHTIA|CHTIA,Charles Tillon,45.77518718,3.127729869,0,1,CHTI
ARFAA,ARFAA|ARFAA,Armand Fallières,45.7906,3.066460009,0,1,ARFA
VICHR,VICHR|VICHR,Victor Charreton,45.79329,3.064330009,0,1,VICH
VICHA,VICHA|VICHA,Victor Charreton,45.79334,3.064320009,0,1,VICH
JABRR,JABRR|JABRR,Jacques Brel,45.79386,3.072220009,0,1,JABR
JABRA,JABRA|JABRA,Jacques Brel,45.793825,3.072218009,0,1,JABR
BOUXR,BOUXR|BOUXR,Bouleaux,45.79694,3.078080009,0,1,BOUX
BOUXA,BOUXA|BOUXA,Bouleaux,45.79699,3.078050009,0,1,BOUX
BDPAR,BDPAR|BDPAR,Boulevard Panoramique,45.79949,3.080610009,0,1,BDPA
BDPAA,BDPAA|BDPAA,Boulevard Panoramique,45.79945,3.080650009,0,1,BDPA
COTEA,COTEA|COTEA,Les Côtes,45.79968795,3.084508198,0,1,COTE
BRENR,BRENR|BRENR,Brennus,45.81156931,3.103408979,0,1,BREN
BRENA,BRENA|BRENA,Brennus,45.81161465,3.103358149,0,1,BREN
QUATR,QUATR|QUATR,Quartières,45.84096,3.105490009,0,1,QUAT
ALEVA,ALEVA|ALEVA,Albert Evaux,45.842839,3.112583009,0,1,ALEV
ALEVR,ALEVR|ALEVR,Albert Evaux,45.842911,3.112693009,0,1,ALEV
GRAIB,GRAIA|GRAIB,Graviers,45.84576273,3.109395998,0,1,GRAI
CGMAA,CGMAA|CGMAA,CHÂTEAUGAY Malalittes,45.85432,3.085800018,0,1,CGMA
CGMAR,CGMAA|CGMAR,CHÂTEAUGAY Malalittes,45.85432,3.085800018,0,1,CGMA
CEFOR,CEFOA|CEFOR,CEYRAT Fontimbert,45.73401104,3.075657308,0,1,CEFO
CEBEA,CEBEA|CEBEA,CEYRAT La Beaumière,45.74501548,3.070009469,0,1,CEBE
BOMOB,BOMOB|BOMOB,Boisséjour Monument,45.743972,3.058707009,0,1,BOMO
BECOA,BECOA|BECOA,BEAUMONT Collège Molière,45.75096638,3.096511899,0,1,BECO
BECOR,BECOR|BECOR,BEAUMONT Collège Molière,45.75089075,3.096385011,0,1,BECO
CHMDA,CHMDA|CHMDA,Champ Madame,45.74877,3.087550009,0,1,CHMD
CHMDR,CHMDR|CHMDR,Champ Madame,45.74885,3.087450009,0,1,CHMD
BEMIA,BEMIA|BEMIA,Bernard Maître,45.7467,3.081870009,0,1,BEMI
BEMIR,BEMIR|BEMIR,Bernard Maître,45.74672,3.081740018,0,1,BEMI
STARA,STARA|STARA,"Stade de l'Artière",45.74468,3.075550009,0,1,STAR
STARR,STARA|STARR,"Stade de l'Artière",45.74468,3.075550009,0,1,STAR
PRHAA,PRHAA|PRHAA,Prés Hauts,45.74654,3.077180009,0,1,PRHA
PRHAR,PRHAR|PRHAR,Prés Hauts,45.74652,3.077280009,0,1,PRHA
BEMAR,BEMAR|BEMAR,Matussat Châtaigneraie,45.74878,3.068930009,0,1,BEMA
CEARA,CEARA|CEARA,CEYRAT Arténium,45.73351,3.068550009,0,1,CEAR
CEARR,CEARA|CEARR,CEYRAT Arténium,45.73351,3.068550009,0,1,CEAR
PCLMR,PCLMR|PCLMR,PONT-DU-CHÂTEAU Lamartine,45.80677,3.243800009,0,1,PCLM
PCLMA,PCLMA|PCLMA,PONT-DU-CHÂTEAU Lamartine,45.80691,3.243770009,0,1,PCLM
JDLFR,JDLFR|JDLFR,Jean de La Fontaine,45.8068,3.235970017,0,1,JDLF
JDLFA,JDLFA|JDLFA,Jean de La Fontaine,45.80694,3.236770017,0,1,JDLF
MADVR,MADVR|MADVR,Marguerite de Valois,45.80425793,3.234078893,0,1,MADV
MADVA,MADVA|MADVA,Marguerite de Valois,45.80457,3.233980009,0,1,MADV
HENRR,HENRR|HENRR,Henri IV,45.80152,3.233490009,0,1,HENR
HENRA,HENRA|HENRA,Henri IV,45.80152,3.233420017,0,1,HENR
ARRIA,ARRIA|ARRIA,Arthur Rimbaud,45.801624,3.237275017,0,1,ARRI
ARRIR,ARRIR|ARRIR,Arthur Rimbaud,45.80157,3.237370009,0,1,ARRI
CRBLB,CRBLB|CRBLB,Croix Blanche,45.79909705,3.244625347,0,1,CRBL
VAURR,VAURR|VAURR,Vaures,45.79680815,3.2421148,0,1,VAUR
VAURA,VAURA|VAURA,Vaures,45.796838,3.242101017,0,1,VAUR
GPDCA,GPDCA|GPDCA,Gare de Pont-du-Château,45.7887888,3.238112944,0,1,GPDC
PEYRB,PEYRB|PEYRB,Le Peyron,45.7897856,3.231232117,0,1,PEYR
LCHLA,LCHLA|LCHLA,Champ Lamet,45.78472632,3.217374095,0,1,LCHL
LPMAR,LPMAR|LPMAR,LEMPDES Marmilhat,45.77702542,3.175729278,0,1,LPMA
COPEA,COPEA|COPEA,"COURNON Plan d'Eau",45.73932413,3.213805249,0,1,COPE
CASSR,CASSR|CASSR,Camille Saint-Saëns,45.73297625,3.206329549,0,1,CASS
CASSA,CASSA|CASSA,Camille Saint-Saëns,45.7349,3.205630009,0,1,CASS
ARICR,ARICR|ARICR,Ariccia,45.7314375,3.204031259,0,1,ARIC
ARICA,ARICA|ARICA,Ariccia,45.73203789,3.203179929,0,1,ARIC
LIVSR,LIVSR|LIVSR,Livradois,45.7334,3.200510017,0,1,LIVS
LIVSA,LIVSA|LIVSA,Livradois,45.73336,3.200610017,0,1,LIVS
ANZER,ANZER|ANZER,Anzelle,45.7417547,3.181950819,0,1,ANZE
ANZEA,ANZEA|ANZEA,Anzelle,45.74210951,3.181429419,0,1,ANZE
EMCOA,EMCOA|EMCOA,Emile Coulaudon,45.754957,3.157219068,0,1,EMCO
AUZRA,AUZRA|AUZRA,Aubière ZI Ribes,45.75491435,3.144481338,0,1,AUZR
AUZRR,AUZRR|AUZRR,Aubière ZI Ribes,45.75482223,3.143528888,0,1,AUZR
GUFLR,GUFLR|GUFLR,Gustave Flaubert,45.75646137,3.128116319,0,1,GUFL
GUFLA,GUFLA|GUFLA,Gustave Flaubert,45.75798576,3.126287339,0,1,GUFL
GUFLB,GUFLB|GUFLB,Gustave Flaubert,45.75792,3.127510009,0,1,GUFL
ALTOA,ALTOA|ALTOA,Alexis de Tocqueville,45.73340085,3.098312359,0,1,ALTO
ALTOS,ALTOS|ALTOS,Alexis de Tocqueville,45.73339987,3.098359126,0,1,ALTO
ALTOB,ALTOB|ALTOB,Alexis de Tocqueville,45.73447824,3.098680991,0,1,ALTO
ALTOR,ALTOR|ALTOR,Alexis de Tocqueville,45.7345007,3.098648795,0,1,ALTO
KESSR,KESSR|KESSR,Kessler,45.77010493,3.087297687,0,1,KESS
UCACS,UCACS|UCACS,UCA - Campus Centre,45.77120037,3.088563079,0,1,UCAC
UCACA,UCACA|UCACA,UCA - Campus Centre,45.77116761,3.088982114,0,1,UCAC
UCACR,UCACR|UCACR,UCA - Campus Centre,45.77120688,3.088936009,0,1,UCAC
UCACB,UCACB|UCACB,UCA - Campus Centre,45.77130232,3.088917741,0,1,UCAC
AUTHR,AUTHR|AUTHR,Augustin Thierry,45.78966426,3.084249809,0,1,AUTH
AUTHA,AUTHA|AUTHA,Augustin Thierry,45.78930407,3.084296349,0,1,AUTH
MAPRA,MAPRA|MAPRA,Maurice Pourchon,45.79161291,3.087683925,0,1,MAPR
MAPRR,MAPRR|MAPRR,Maurice Pourchon,45.79142,3.087760009,0,1,MAPR
CLDVA,CLDVA|CLDVA,Clos des Vignes,45.79293327,3.093649158,0,1,CLDV
CLDVR,CLDVR|CLDVR,Clos des Vignes,45.79277,3.093820009,0,1,CLDV
GROLA,GROLA|GROLA,Grolière,45.788861,3.102838009,0,1,GROL
GROLR,GROLR|GROLR,Grolière,45.788896,3.102789009,0,1,GROL
RODDA,RODDA|RODDA,Rodade,45.79164,3.106560009,0,1,RODD
RODDR,RODDR|RODDR,Rodade,45.7917,3.106680009,0,1,RODD
ROMAA,ROMAA|ROMAA,Robert Marchadier,45.79489,3.109320009,0,1,ROMA
ROMAR,ROMAR|ROMAR,Robert Marchadier,45.79487,3.109540009,0,1,ROMA
LOCTR,LOCTR|LOCTR,Louis Chartoire,45.79722206,3.136523198,0,1,LOCT
JEAUA,JEAUA|JEAUA,Jean Auchatraire,45.79789467,3.141871038,0,1,JEAU
JEAUR,JEAUR|JEAUR,Jean Auchatraire,45.79785537,3.141896742,0,1,JEAU
AUVIA,AUVIA|AUVIA,Aulnat Village,45.79544,3.159550009,0,1,AUVI
AUVIR,AUVIR|AUVIR,Aulnat Village,45.79545,3.159460009,0,1,AUVI
AUMAA,AUMAA|AUMAA,Aulnat Mairie,45.79512,3.165230009,0,1,AUMA
AUMAR,AUMAR|AUMAR,Aulnat Mairie,45.7950989,3.165290969,0,1,AUMA
REBOA,REBOA|REBOA,René Bonhomme,45.79924759,3.167385579,0,1,REBO
REBOR,REBOR|REBOR,René Bonhomme,45.79899613,3.168539459,0,1,REBO
AUSES,AUSEA|AUSES,AULNAT St Exupéry,45.79583,3.172120009,0,1,AUSE
AUSET,AUSER|AUSET,AULNAT St Exupéry,45.79557,3.171530009,0,1,AUSE
EDROB,EDROB|EDROB,Edmond Rostand,45.798898,3.171220009,0,1,EDRO
BCSVR,BCSVR|BCSVR,BLANZAT Clos St Vincent,45.8237,3.070500009,0,1,BCSV
BCSVA,BCSVA|BCSVA,BLANZAT Clos St Vincent,45.82362,3.070610009,0,1,BCSV
PIMOA,PIMOA|PIMOA,Pierre Montgroux,45.83139978,3.096683929,0,1,PIMO
ANTHA,ANTHA|ANTHA,Theuriet,45.76631199,3.078173489,0,1,ANTH
ANTHR,ANTHR|ANTHR,Theuriet,45.76637548,3.078097209,0,1,ANTH
PONCA,PONCA|THOMA,Poncillon,45.76199985,3.085339529,0,1,PONC
JUVES,JUVEA|JUVES,Jules Verne,45.78167,3.120670009,0,1,JUVE
JUVEB,JUVEB|JUVER,Jules Verne,45.78163,3.120660009,0,1,JUVE
STDUA,STDUA|STDUA,Stade de Durtol,45.79755617,3.053276548,0,1,STDU
PLFAR,PLFAR|PLFAR,Pl. de la Farge,45.80900192,3.056234719,0,1,PLFA
PLFAA,PLFAA|PLFAA,Pl. de la Farge,45.80873294,3.056089679,0,1,PLFA
TAMAB,TAMAB|TAMAB,Tamaris,45.78881873,3.062841314,0,1,TAMA
MEUNB,MEUNB|MEUNB,Meuniers,45.76523,3.103920018,0,1,MEUN
ROMEA,ROMEA|ROMEA,Roger Maerte,45.75955928,3.123174915,0,1,ROME
ROMER,ROMER|ROMER,Roger Maerte,45.75971647,3.122713575,0,1,ROME
AUQCR,AUQCA|AUQCR,AUBIÈRE Quartier Chambon,45.75251152,3.129837522,0,1,AUQC
AUQCB,AUQCB|AUQCB,AUBIÈRE Quartier Chambon,45.75186771,3.128051171,0,1,AUQC
AUQCS,AUQCS|AUQCS,AUBIÈRE Quartier Chambon,45.7519538,3.128340849,0,1,AUQC
AUQCA,AUQCA|AUQCA,AUBIÈRE Quartier Chambon,45.75247207,3.129896829,0,1,AUQC
HACMA,HACMA|HACMA,Hauts de CHAMALIÈRES,45.78226475,3.05320681,0,1,HACM
LYVGA,LYVGA|LYVGA,"Lycée Valéry Giscard d'Estaing",45.77671626,3.051222429,0,1,LYVG
LYVGR,LYVGR|LYVGR,"Lycée Valéry Giscard d'Estaing",45.77668919,3.051234929,0,1,LYVG
FOFAA,FOFAA|FOFAA,Fontmaure La FAC,45.77544973,3.059344729,0,1,FOFA
FOFAR,FOFAR|FOFAR,Fontmaure La FAC,45.77544824,3.059576139,0,1,FOFA
PEHOA,PEHOA|PEHOA,PÉRIGNAT-LES-SARLIEVE Les Horts,45.72502313,3.147196787,0,1,PEHO
PEHOR,PEHOR|PEHOR,PÉRIGNAT-LES-SARLIEVE Les Horts,45.72500815,3.147041219,0,1,PEHO
LSPAR,LSPAR|LSPAR,Louis Pasteur,45.7643509,3.044647388,0,1,LSPA
LSPAA,LSPAA|LSPAA,Louis Pasteur,45.76434182,3.044660118,0,1,LSPA
MIANA,MIANA|MIANA,Michel Ange,45.76048,3.131730009,0,1,MIAN
EVGAR,EVGAR|EVGAR,Évariste Galois,45.75914,3.134000009,0,1,EVGA
EVGAA,EVGAA|EVGAA,Évariste Galois,45.75907,3.133970009,0,1,EVGA
LESAR,LESAR|LESAR,Les Sauzes,45.75705,3.137290009,0,1,LESA
LESAA,LESAA|LESAA,Les Sauzes,45.757,3.137210009,0,1,LESA
ROGEA,ROGEA|ROGER,ROMAGNAT Gergovia,45.72639908,3.101260059,0,1,ROGE
CELIA,CELIA|CELIA,CEYRAT Libération,45.72003,3.067870009,0,1,CELI
OPMES,OPMES|OPMES,ROMAGNAT Opme,45.71091173,3.089782378,0,1,OPME
COJCR,COJCA|COJCR,Collège Joliot Curie,45.752036,3.119330018,0,1,COJC
LECEB,LECEB|LECEB,Le Cèdre,45.79983482,3.253011328,0,1,LECE
JEFAA,JEFAA|JEFAA,Jean Zay,45.78813,3.260340009,0,1,JEFA
JEFAR,JEFAR|JEFAR,Jean Zay,45.78821,3.260490009,0,1,JEFA
PCCHA,PCCHA|PCCHA,PONT-DU-CHÂTEAU Chambon Haut,45.78786,3.254240009,0,1,PCCH
PCCHR,PCCHR|PCCHR,PONT-DU-CHÂTEAU Chambon Haut,45.78785,3.254060009,0,1,PCCH
PADIR,PADIR|PADIR,Paul Diomède,45.78375505,3.075798059,0,1,PADI
PADIA,PADIA|PADIA,Paul Diomède,45.78443032,3.078456199,0,1,PADI
GOBER,GOBER|GOBER,Gordon Bennett,45.78527,3.078210009,0,1,GOBE
GOBEA,GOBEA|GOBEA,Gordon Bennett,45.78714,3.080050009,0,1,GOBE
LROCR,LROCR|LROCR,LEMPDES La Rochelle,45.78002,3.199700009,0,1,LROC
LROCA,LROCA|LROCA,LEMPDES La Rochelle,45.78015,3.199590009,0,1,LROC
PIBOR,PIBOR|PIBOR,Piscine M. Boubat,45.77939,3.194370009,0,1,PIBO
PIBOA,PIBOA|PIBOA,Piscine M. Boubat,45.77945,3.194290009,0,1,PIBO
RODIA,RODIA|RODIA,Rodolphe Diesel,45.77917,3.136930009,0,1,RODI
JMBEA,JMBEA|JMBEA,Jean-Marie Bellime,45.83568425,3.095082719,0,1,JMBE
JMBER,JMBER|JMBER,Jean-Marie Bellime,45.83590916,3.095085819,0,1,JMBE
JEBDR,JEBDR|JEBDR,Jean-Baptiste Dumas,45.78343,3.094800009,0,1,JEBD
JEBDA,JEBDA|JEBDA,Jean-Baptiste Dumas,45.78373,3.094180009,0,1,JEBD
CHAPB,CHAPB|CHAPB,Les Chapelles,45.79724948,3.167002219,0,1,CHAP
JEMEB,JEMEB|JEMEB,Jean Mermoz,45.79146,3.139150009,0,1,JEME
ELREB,ELREB|ELREB,Elisée Reclus,45.79054,3.135400009,0,1,ELRE
RESJR,RESJR|RESJR,Résidence St Jean,45.78743467,3.117590564,0,1,RESJ
RESJA,RESJA|RESJA,Résidence St Jean,45.78734116,3.117381352,0,1,RESJ
GEHAR,GEHAR|GEHAR,Gisèle Halimi,45.78631993,3.113390225,0,1,GEHA
GEHAA,GEHAA|GEHAA,Gisèle Halimi,45.78633863,3.113400954,0,1,GEHA
BIHDR,BIHDR|BIRHD,"Bibliothèque de l'Hôtel-Dieu",45.77332735,3.082613649,0,1,BIHD
BIHDA,BIHDA|BIHDA,"Bibliothèque de l'Hôtel-Dieu",45.77322558,3.082619914,0,1,BIHD
SJDOB,SJDOB|SJDOB,St Jacques Dolet,45.76546,3.088980018,0,1,SJDO
LEBLB,LEBLB|LEBLB,Léon Blum,45.76273,3.098580018,0,1,LEBL
CHAUB,CHAUB|CHAUB,La Chaux,45.76125,3.104990018,0,1,CHAU
VEGNC,VEGNC|VEGNC,Les Vergnes,45.81365849,3.129022139,0,1,VEGN
VEGNT,VEGNT|VEGNT,Les Vergnes,45.81383796,3.129172343,0,1,VEGN
CHJFR,CHJFR|CHJFR,CHAPPES J. Ferry,45.867541,3.218064009,0,1,CHJF
CHPMR,CHPMR|CHPMR,CHAPPES Mairie,45.86951991,3.220341927,0,1,CHPM
CERHR,CERHR|CERHR,Centre de Recherche,45.8723034,3.219363817,0,1,CERH
BIOLR,BIOLR|BIOLR,Biopôle 2,45.850034,3.170251849,0,1,BIOL
MAJOR,MAJOA|MAJOR|MAJOR,MALINTRAT La Joselle,45.8153688,3.186683918,0,1,MAJO
MAJOA,MAJOA|MAJOA,MALINTRAT La Joselle,45.8153688,3.186683909,0,1,MAJO
MAMAA,MAMAA|MAMAA,Mairie MALINTRAT,45.8112548,3.189079718,0,1,MAMA
LMAER,LMAER|LMAER,"LES MARTRES D'ARTIÈRE École",45.8366004,3.265449517,0,1,LMAE
LMAEA,LMAEA|LMAEA,"LES MARTRES D'ARTIÈRE École",45.8367462,3.265781617,0,1,LMAE
LMEGR,LMEGR|LMEGR,"LES MARTRES D'ARTIÈRE Église",45.833321,3.260410517,0,1,LMEG
LMEGA,LMEGA|LMEGA,"LES MARTRES D'ARTIÈRE Église",45.8332758,3.260104417,0,1,LMEG
CORMR,CORMR|CORMR,Cormède,45.8190606,3.239353217,0,1,CORM
CORMA,CORMA|CORMA,Cormède,45.819122,3.239320417,0,1,CORM
RIGSR,RIGSA|RIGSR,Gare de RIOM,45.8904299,3.119992518,0,1,RIGS
RIGSA,RIGSA|RIGSA,Gare de RIOM,45.8904299,3.119992518,0,1,RIGS
RILVR,RILVR|RILVR,Lycée Virlogeux,45.8864998,3.114551118,0,1,RILV
RILVA,RILVA|RILVA,Lycée Virlogeux,45.8859686,3.114608018,0,1,RILV
RIPFR,RIPFR|RIPFR,Parc des Fêtes,45.8820601,3.116446318,0,1,RIPF
RIPFA,RIPFA|RIPFA,Parc des Fêtes,45.8820795,3.116240518,0,1,RIPF
MERSR,MERSR|MERSR,Centre Commercial Riom Sud,45.878596,3.116474418,0,1,MERS
MERSA,MERSA|MERSA,Centre Commercial Riom Sud,45.8785115,3.116975618,0,1,MERS
MECCR,MECCR|MECCR,Arrière Centre Commercial,45.8769048,3.116424718,0,1,MECC
MECCA,MECCA|MECCA,Arrière Centre Commercial,45.8772029,3.120138718,0,1,MECC
PATUA,PATUA|PATUA,Patural,45.82800615,3.150934808,0,1,PATU
PATUR,PATUR|PATUR,Patural,45.82764667,3.150878008,0,1,PATU
MARTR,MARTR|MARTR,Martyrs,45.82305619,3.146151568,0,1,MART
CHABA,CHABA|CHABA,Chabesses,45.817949,3.143194068,0,1,CHAB
CHABR,CHABR|CHABR,Chabesses,45.81768959,3.142984388,0,1,CHAB
BAISR,BAISR|BAISR,"Barrière d'Issoire",45.77285515,3.09297325,0,1,BAIS
CHFOA,CHFOA|CHFOA,Champfleuri Forest,45.7933,3.100520018,0,1,CHFO
CHFOR,CHFOR|CHFOR,Champfleuri Forest,45.79311,3.100580018,0,1,CHFO
BRUGR,BRUGR|BRUGR,Brugeron,45.80847544,3.129199258,0,1,BRUG
BRUGA,BRUGA|BRUGA,Brugeron,45.80870798,3.129395588,0,1,BRUG
RHONR,RHONR|RHONR,Rhonez,45.81415336,3.140513618,0,1,RHON
RHONA,RHONA|RHONA,Rhonez,45.81411738,3.140513088,0,1,RHON
GAMBR,GAMBR|GAMBR,Gambetta,45.81520024,3.143835698,0,1,GAMB
GAMBA,GAMBA|GAMBA,Gambetta,45.81526276,3.143900958,0,1,GAMB
JUFER,JUFER|JUFER,Jules Ferry,45.82052254,3.144402808,0,1,JUFE
JUFEA,JUFEA|JUFEA,Jules Ferry,45.82047737,3.144427888,0,1,JUFE
ELJAR,ELJAR|ELJAR,Elie Jaloustre,45.82235057,3.145433408,0,1,ELJA
ELJAA,ELJAA|ELJAA,Elie Jaloustre,45.8226212,3.145334438,0,1,ELJA
PEGUR,PEGUR|PEGUR,Les Pègues,45.82415595,3.149603768,0,1,PEGU
PEGUA,PEGUA|PEGUA,Les Pègues,45.82410188,3.149615838,0,1,PEGU
GEROR,GEROA|GEROR,GERZAT Rochefort,45.83102639,3.151327048,0,1,GERO
GEROA,GEROA|GEROA,GERZAT Rochefort,45.83073925,3.151219828,0,1,GERO
PASCR,PASCR|PASCR,Pascal,45.8287544,3.148945588,0,1,PASC
PASCA,PASCA|PASCA,Pascal,45.82887856,3.148489548,0,1,PASC
BOURR,BOURR|BOURR,Bourly,45.82844293,3.146514008,0,1,BOUR
BOURA,BOURA|BOURA,Bourly,45.82903389,3.145660418,0,1,BOUR
LIMAR,LIMAR|LIMAR,Limagne,45.83106937,3.145368608,0,1,LIMA
LIMAA,LIMAA|LIMAA,Limagne,45.83147374,3.145438908,0,1,LIMA
GECHA,GECHA|GECHR,GERZAT Champfleuri,45.83525058,3.14800145,0,1,GECH
RESPA,RESPA|RESPA,Résidence Pasteur,45.7576,3.111120018,0,1,RESP
CITEA,CITEA|CITEA,Cité 1,45.76094,3.118070018,0,1,CITE
COAFA,COAFA|COAFA,Collège Anatole France,45.8281152,3.154293912,0,1,COAF
PRGNA,PRGNA|PRGNA,Prugnard,45.82796195,3.100687283,0,1,PRGN
PLCOA,PLCOA|PLCOA,Pl. des Communes,45.8297898,3.098450321,0,1,PLCO
SARER,SARER|SARER,Sarre,45.83551221,3.096170443,0,1,SARE
SAREA,SAREA|SAREA,Sarre,45.83551221,3.096159714,0,1,SARE
MACRR,MACRR|MACRR,Marie Curie,45.835872,3.101920018,0,1,MACR
MACRA,MACRA|MACRA,Marie Curie,45.835908,3.101908018,0,1,MACR
MAPAR,MAPAR|MAPAR,Marcel Paul,45.826546,3.127401018,0,1,MAPA
MAPAA,MAPAA|MAPAA,Marcel Paul,45.826454,3.127554018,0,1,MAPA
COHPA,COHPA|COHPA,Collège Henri Pourrat,45.73256113,3.066194075,0,1,COHP
COLCA,COLCA|COLCA,Collège La Charme,45.79782545,3.119258898,0,1,COLC
INMEA,INMEA|INMEA,Institut des Métiers,45.81025036,3.128974118,0,1,INME
LEMOA,LEMOA|LEMOA,Lemoy,45.81536343,3.125792759,0,1,LEMO
CORIA,CORIA|CORIA,Collège de la Ribeyre,45.72869302,3.203753846,0,1,CORI
ECARA,ECARA|ECARA,École Aragon,45.72189978,3.193298596,0,1,ECAR
GONDA,GONDA|GONDA,Gondole,45.71742793,3.195503372,0,1,GOND
COMCA,COMCA|COMCA,Collège Marc Bloch,45.7369677,3.192330517,0,1,COMC
ARVEA,ARVEA|ARVEA,Arverne,45.723799,3.186444817,0,1,ARVE
SGCRA,SGCRA|SGCRA,St Genès La Côte Rouge,45.72128558,3.022538441,0,1,SGCR
BZMOR,BZMOR|BZMOR,Berzet Les Moulèdes,45.7231039,3.037791718,0,1,BZMO
BZMOA,BZMOA|BZMOA,Berzet Les Moulèdes,45.7231206,3.037997518,0,1,BZMO
BECHR,BECHR|BECHR,Berzet Chapelle,45.72435278,3.044044393,0,1,BECH
BECHA,BECHA|BECHA,Berzet Chapelle,45.72431533,3.044033664,0,1,BECH
BZSGR,BZSGR|BZSGR,Berzet St Georges,45.72495197,3.047949689,0,1,BZSG
BZSGA,BZSGA|BZSGA,Berzet St Georges,45.7249905,3.048233618,0,1,BZSG
BCHIR,BCHIR|BCHIR,"Berzet Champ d'Issart",45.72816502,3.049339074,0,1,BCHI
BCHIA,BCHIA|BCHIR,"Berzet Champ d'Issart",45.72810511,3.049349803,0,1,BCHI
NADAA,NADAA|NADAA,Nadaillat,45.69231671,3.033991474,0,1,NADA
BNCHA,BNCHA|BNCHA,Beaune Le Chaud,45.72634132,2.989633101,0,1,BNCH
BCPNA,BCPNA|BCPNA,Beaune Le Chaud Pré Neuf,45.72795157,2.988351005,0,1,BCPN
BCPNR,BCPNR|BCPNR,Beaune Le Chaud Pré Neuf,45.72794408,2.988340276,0,1,BCPN
LABUA,LABUA|LABUA,Laschamps Busageix,45.73797154,2.970267552,0,1,LABU
LABUR,LABUR|LABUR,Laschamps Busageix,45.7378916,2.970229418,0,1,LABU
LSMOA,LSMOA|LSMOA,Laschamps Moreno,45.74078699,2.96531083,0,1,LSMO
LSMOR,LSMOR|LSMOR,Laschamps Moreno,45.74078325,2.965246457,0,1,LSMO
LAEGA,LAEGA|LAEGA,Laschamps Église,45.74121753,2.96724202,0,1,LAEG
LAEGR,LAEGR|LAEGR,Laschamps Église,45.7412099,2.967299418,0,1,LAEG
PDVER,PDVER|PDVER,Pardon 13 Vents,45.71953656,2.998001593,0,1,PDVE
PDVEA,PDVEA|PDVEA,Pardon 13 Vents,45.71954405,2.997883576,0,1,PDVE
CHPXR,CHPXA|CHPXR,Champeaux,45.74299208,3.041292447,0,1,CHPX
CHPXA,CHPXA|CHPXA,Champeaux,45.74299208,3.041313904,0,1,CHPX
CHSOA,CHSOA|CHSOA,Chemin du Sou,45.74880202,3.08743717,0,1,CHSO
VERDA,VERDA|VERDA,Verdi,45.74638378,3.07721259,0,1,VERD
DOROA,DOROA|DOROA,Docteur Royet,45.8035474,3.244287389,0,1,DORO
ETREA,ETREA|ETREA,"L'Étredelle",45.80043967,3.261432069,0,1,ETRE
CRRAA,CRRAA|CRRAA,Croix des Rameaux,45.80380918,3.252645152,0,1,CRRA
CHTAA,CHTAA|CHTAA,Chantagret,45.80484878,3.248552101,0,1,CHTA
CARRA,CARRA|CARRA,Carrosse,45.80339782,3.24764015,0,1,CARR
PEPAA,PEPAA|PEPAA,Petit Pan,45.79801619,3.232469576,0,1,PEPA
FAEGA,FAEGA|FAEGA,"Fabre d'Églantine",45.79954958,3.229942935,0,1,FAEG
CHPOA,CHPOA|CHPOA,Champ des Poix,45.7942708,3.234628167,0,1,CHPO
ECPBR,ECPBR|ECPBR,École Pierre Brosselette,45.803091,3.244435017,0,1,ECPB
ECPBA,ECPBA|ECPBA,École Pierre Brosselette,45.80351,3.245360017,0,1,ECPB
ECRCA,ECRCA|ECRCA,École René Cassin,45.80039853,3.250912445,0,1,ECRC
ECJAR,ECJAA|ECJAR,École Jean Alix,45.79295572,3.25464608,0,1,ECJA
ECJAA,ECJAA|ECJAA,École Jean Alix,45.7929445,3.254570978,0,1,ECJA
DURTA,DURTA|DURTA,DURTOL,45.79736168,3.052461165,0,1,DURT
SQSAR,SQSAR|SQSAR,Square Sabourin,45.79453412,3.052788394,0,1,SQSA
SQSAA,SQSAA|SQSAA,Square Sabourin,45.7944668,3.052675742,0,1,SQSA
BREUA,BREUA|BREUA,Breuil,45.79513662,3.167712541,0,1,BREU
JECOA,JECOA|JECOA,Jean Cocteau,45.79720353,3.171781168,0,1,JECO
SIROA,SIROA|SIROA,Sirocco,45.80055561,3.171315211,0,1,SIRO
JEBAA,JEBAA|JEBAA,Jean Bayard,45.8007426,3.167753237,0,1,JEBA
MEFRA,MEFRA|MEFRA,Mendès France,45.79961419,3.165890578,0,1,MEFR
COEXA,COEXA|COEXA,Collège St Exupéry,45.77016854,3.187054413,0,1,COEX
PISEA,PISEA|PISEA,Pierre Semard,45.79281358,3.168885129,0,1,PISE
PACUR,PACUR|PACUR,Pasteur Curie,45.79373745,3.16491546,0,1,PACU
PACUA,PACUA|PACUA,Pasteur Curie,45.79363646,3.165028113,0,1,PACU
EMZOA,EMZOA|EMZOA,Emile Zola,45.79448924,3.162238615,0,1,EMZO
COTCA,COTCA|COTCA,Collège Teilhard de Chardin,45.776549,3.062134418,0,1,COTC
BONZA,BONZA|BONZA,Bournazet,45.78527997,3.027173298,0,1,BONZ
BONNA,BONNA|BONNA,Bonnabry,45.7883507,3.023191218,0,1,BONN
LEGRA,LEGRA|LEGRA,Le Gressigny,45.78862421,3.019078392,0,1,LEGR
LGRMA,LGRMA|LGRMA,Le Gressigny Micoline,45.790397,3.022312018,0,1,LGRM
LTOIA,LTOIA|LTOIA,"L'Etoilerie",45.79336715,3.0272484,0,1,LTOI
SACNA,SACNA|SACNA,Sarcenat,45.797314,3.029829388,0,1,SACN
TRSGA,TRSGA|TRSGA,Ternant Sagnola,45.8055593,3.014856595,0,1,TRSG
TERDA,TERDA|TERDA,Ternant Rte de Durtol,45.80753372,3.011734503,0,1,TERD
TEBGA,TEBGA|TEBGA,Ternant Bourg,45.80719344,3.007888216,0,1,TEBG
TRRCA,TRRCA|TRRCA,Ternant Rte de la Croix,45.80952304,3.007754105,0,1,TRRC
FTBEA,FTBEA|FTBEA,Fontaine du Berger,45.79978519,2.991971987,0,1,FTBE
LAFMA,LAFMA|LAFMA,"La Font de l'Arbre Rte de Montrodeix",45.7679506,3.005707318,0,1,LAFM
ENVAA,ENVAA|ENVAA,Enval,45.7646763,2.997570608,0,1,ENVA
MTRXA,MTRXA|MTRXA,Montrodeix,45.7641101,3.005200642,0,1,MTRX
SGNJA,SGNJA|SGNJA,Solagnat Les Jardets,45.7625458,3.014835137,0,1,SGNJ
SOLGA,SOLGA|SOLGA,Solagnat,45.76472383,3.017190116,0,1,SOLG
FTANA,FTANA|FTANA,Fontanas,45.76824892,3.015103358,0,1,FTAN
LCRDA,LCRDA|LCRDA,Le Cheix Rte des Dômes,45.77200578,3.020113724,0,1,LCRD
VIPLA,VIPLA|VIPLA,Villars Pierre Levée,45.7773046,3.031783168,0,1,VIPL
GAROR,GAROA|GAROR,Gare Routière,45.7711751,3.083467501,0,1,GARO
GAROA,GAROA|GAROA,Gare Routière,45.77093562,3.083338755,0,1,GARO
EREAA,EREAA|EREAA,EREA,45.70643403,3.096835631,0,1,EREA
SZECA,SZECA|SZECA,Saulzet École,45.71380016,3.068790416,0,1,SZEC
CHCEA,CHCEA|CHCEA,Chatrat Centre,45.72824366,3.005114812,0,1,CHCE
MAMAR,MAMAR|MAMAR,Mairie MALINTRAT,45.8112548,3.189079709,0,1,MAMA
ARTI,,Aubière Artière,45.7535745,3.116951026,1,1,
AUBT,,Cébazat Aubiat,45.83190367,3.096646038,1,1,
AUPR,,Aubière AUBIÈRE Pl. des Ramacles,45.749796,3.112470029,1,1,
BALL,,Clermont-Ferrand Ballainvilliers,45.77559938,3.086598082,1,1,
BAIS,,"Clermont-Ferrand Barrière d'Issoire",45.7732195,3.092042537,1,1,
BELV,,Romagnat Bellevue,45.733919,3.106779522,1,1,
BIAS,,Clermont-Ferrand Bien Assis,45.7886595,3.095257524,1,1,
CASA,,Aubière Casati,45.752406,3.107700022,1,1,
CATA,,Clermont-Ferrand Cataroux,45.78910387,3.098742844,1,1,
CECH,,Cébazat CÉBAZAT CHU L. Michel,45.839718,3.09198454,1,1,
CERE,,Blanzat Ceyre,45.831012,3.085359022,1,1,
CHCR,,Cébazat Champcros,45.8213385,3.107019581,1,1,
CHAM,,Clermont-Ferrand Champratel,45.815535,3.112895516,1,1,
CHPV,,Aubière Champvoisin,45.752308,3.110185522,1,1,
CHTE,,Clermont-Ferrand Chanteranne,45.7917205,3.096226021,1,1,
CHPL,,Clermont-Ferrand Chaptal,45.75884498,3.101569205,1,1,
CHGM,,Clermont-Ferrand CHU G. Montpied,45.76124148,3.089808816,1,1,
CLAD,,Cébazat Cladenas,45.83037273,3.104835959,1,1,
CLFO,,Clermont-Ferrand Clos Four,45.7871822,3.098131166,1,1,
COBL,,Clermont-Ferrand Côte Blatin,45.770922,3.094511522,1,1,
COUM,,Cébazat Coumes,45.83146427,3.091768266,1,1,
COUT,,Romagnat Georges Couthon,45.7359125,3.102009039,1,1,
CTIL,,Cébazat Coutils,45.824864,3.105196522,1,1,
CRNE,,Clermont-Ferrand Croix de Neyrat,45.81422585,3.107010073,1,1,
DAGU,,Clermont-Ferrand Daguerre,45.7595395,3.096064523,1,1,
DAUD,,Clermont-Ferrand Alphonse Daudet,45.8145325,3.102942538,1,1,
DEBU,,Cébazat Debussy,45.8177345,3.107110522,1,1,
DESA,,Clermont-Ferrand Delille Salford,45.77983356,3.091882726,1,1,
DEPA,,Clermont-Ferrand Deux Patriotes,45.7809815,3.103690031,1,1,
DIDE,,Clermont-Ferrand Diderot,45.80503718,3.109312827,1,1,
ESPL,,Clermont-Ferrand Esplanade,45.7775565,3.095336031,1,1,
FONT,,Clermont-Ferrand Fontcimagne,45.797787,3.104522522,1,1,
FRAD,,Blanzat Fradière,45.82886153,3.07720852,1,1,
GASN,,Clermont-Ferrand Gare SNCF,45.77859028,3.099381276,1,1,
GOME,,Clermont-Ferrand Gomel,45.8124765,3.099632522,1,1,
HACH,,Clermont-Ferrand Hauts de Chanturgue,45.81097055,3.106758295,1,1,
ILIA,,Clermont-Ferrand Iliane,45.8077945,3.126224031,1,1,
INME,,Clermont-Ferrand Institut des Métiers,45.810406,3.129066022,1,1,
JARZ,,Blanzat Jarzy,45.83000288,3.080866581,1,1,
JOCU,,Aubière Joliot Curie,45.7517295,3.11713053,1,1,
BEZO,,Romagnat La Bezou,45.7437735,3.107682021,1,1,
PLAI,,Clermont-Ferrand La Plaine,45.81173574,3.114488791,1,1,
LAOU,,Cébazat Ladoux Ouest,45.8409905,3.12094704,1,1,
LAPT,,Cébazat CÉBAZAT Porte de Troyes,45.841266,3.129176544,1,1,
LMAS,,Aubière Le Mas,45.755382,3.104104522,1,1,
LECL,,Clermont-Ferrand Camille et Edmond Leclanché,45.8064795,3.11088354,1,1,
LECO,,Clermont-Ferrand Lecoq,45.77163489,3.086839852,1,1,
LEBL,,Clermont-Ferrand Léon Blum,45.76260057,3.097758655,1,1,
CAVE,,Romagnat Les Caves,45.7326875,3.105279022,1,1,
PERC,,Cébazat Les Perches,45.83032919,3.099365471,1,1,
PLAT,,Clermont-Ferrand Les Plats,45.764792,3.092930022,1,1,
SPOR,,ROMAGNAT Les Sports,45.734882,3.10277154,1,1,
VEGN,,Clermont-Ferrand Les Vergnes,45.81301587,3.128390126,1,1,
VGNE,,Clermont-Ferrand Les Vignes,45.80265818,3.106616537,1,1,
LYLA,,Clermont-Ferrand Lycée La Fayette,45.76338469,3.128742908,1,1,
MARO,,Romagnat Mairie,45.730457,3.10320504,1,1,
MACU,,Clermont-Ferrand Maison de la Culture,45.77072075,3.084956524,1,1,
MAMI,,Aubière Marcel Michelin,45.753681,3.113315022,1,1,
MIHO,,"Clermont-Ferrand Michel de l'Hospital",45.777838,3.090209522,1,1,
MTLB,,Beaumont Montalembert,45.7563835,3.095732023,1,1,
NESO,,Clermont-Ferrand Neuf Soleils,45.76685054,3.095870304,1,1,
NEYR,,Clermont-Ferrand Neyrat,45.814825,3.107565531,1,1,
PASN,,Clermont-Ferrand Parc SNCF,45.7770635,3.101687522,1,1,
PERO,,Romagnat Pérouses,45.7352685,3.104794522,1,1,
PEUP,,Aubière Peuplier,45.748473,3.110562022,1,1,
PLMO,,Blanzat Pl. du Montel,45.8270235,3.074205022,1,1,
PRAT,,Aubière Prat,45.7459055,3.109106522,1,1,
PRUN,,Clermont-Ferrand Pruniers,45.7950565,3.101854021,1,1,
PUGE,,Clermont-Ferrand Pierre Puget,45.7611335,3.10039954,1,1,
ROGE,,ROMAGNAT Gergovia,45.726426,3.101248022,1,1,
GAZE,,ROMAGNAT La Gazelle,45.7380255,3.104858522,1,1,
ROUV,,Clermont-Ferrand Rouvier,45.8064185,3.114555022,1,1,
SARD,,Clermont-Ferrand Victorien Sardou,45.8077535,3.122428539,1,1,
SAUT,,Aubière Sauzettes,45.75086,3.123749521,1,1,
AIRU,,Lempdes Aimé Rudel,45.776745,3.179755018,1,1,
STJA,,Clermont-Ferrand St Jacques,45.757235,3.096810522,1,1,
SJLO,,Clermont-Ferrand St Jacques Loucheur,45.761299,3.094623522,1,1,
STMA,,Aubière St Martin,45.7502295,3.121234522,1,1,
SAVE,,Romagnat St Verny,45.739644,3.106326522,1,1,
VIGE,,Clermont-Ferrand Dr Vigenaud,45.763791,3.098578536,1,1,
ROPM,,Romagnat Pl. François Mitterrand,45.729712,3.100297534,1,1,
PONA,,Clermont-Ferrand Pont de Naud,45.77306128,3.094830641,1,1,
PMAI,,Clermont-Ferrand 1er Mai,45.78523883,3.101421758,1,1,
BEPB,,BEAUMONT Pont de Boisséjour,45.74742621,3.072155345,1,1,
BEAP,,Clermont-Ferrand Beaupeyras,45.7946865,3.082575022,1,1,
BOPL,,Ceyrat Boisséjour Place,45.7451735,3.062288522,1,1,
BOUY,,Durtol Bouys,45.7940865,3.062187522,1,1,
CEYR,,CEYRAT Mairie,45.7337725,3.063988531,1,1,
BOMO,,Ceyrat Boisséjour Monument,45.7440015,3.058534034,1,1,
CEPR,,Ceyrat Pradeaux,45.720749,3.06814504,1,1,
CERO,,Ceyrat Robinson,45.725759,3.06352954,1,1,
CHAL,,Clermont-Ferrand Chalonnax,45.791843,3.091398039,1,1,
CHPT,,Clermont-Ferrand Champradet,45.78763413,3.059691024,1,1,
CHTM,,Ceyrat Chantemerle,45.737209,3.061226024,1,1,
CHAG,,"Beaumont Chapelle de l'Agneau",45.7500205,3.079265022,1,1,
CHRC,,Clermont-Ferrand Charcot Fontaine du Large,45.7939325,3.091137522,1,1,
COFL,,Clermont-Ferrand Côtes Fleuries,45.7945035,3.084476531,1,1,
DRHO,,Clermont-Ferrand Docteur Hospital,45.79417,3.087925522,1,1,
DURT,,DURTOL,45.79742,3.052462527,1,1,
FOUR,,Clermont-Ferrand Fournières,45.7890385,3.063722031,1,1,
JEJA,,Clermont-Ferrand Jean Jaurès,45.767656,3.082427518,1,1,
LAYA,,Durtol Layat,45.7912635,3.053553022,1,1,
CHBD,,Beaumont Les Chabades,45.75278474,3.083652708,1,1,
LIER,,Clermont-Ferrand Les Lierres,45.7951535,3.075951031,1,1,
ROCH,,Beaumont Les Roches,45.74821896,3.076792142,1,1,
MABE,,Beaumont Mairie,45.75392466,3.086052178,1,1,
MATH,,Beaumont Matharet,45.747883,3.069039031,1,1,
MAZE,,Ceyrat Mazeyrat,45.7419785,3.058982522,1,1,
HUMA,,Clermont-Ferrand 08-mai,45.771349,3.078395557,1,1,
MTCH,,Clermont-Ferrand Montcharvais,45.788758,3.056252522,1,1,
MTPO,,Beaumont Montpoly,45.751809,3.080908022,1,1,
ORGA,,Clermont-Ferrand Oradou Gantière,45.764758,3.124109031,1,1,
PANE,,Clermont-Ferrand Pablo Neruda,45.766109,3.121326045,1,1,
PLVE,,Clermont-Ferrand Pl. de Verdun,45.765303,3.082466521,1,1,
POVA,,Clermont-Ferrand Pont de Vallières,45.758505,3.08117902,1,1,
PONE,,Clermont-Ferrand Pont Neuf,45.7912485,3.059423522,1,1,
PREG,,Ceyrat Préguille,45.73926,3.059930022,1,1,
PREV,,Ceyrat Jacques Prévert,45.731844,3.06374454,1,1,
PUYO,,Clermont-Ferrand Puyou,45.795056,3.079126522,1,1,
QURO,,Clermont-Ferrand Quatre Routes,45.78553738,3.064621089,1,1,
REDO,,Ceyrat Redon,45.7230215,3.067321522,1,1,
ROBR,,Clermont-Ferrand Roches Brunes,45.75596726,3.084660063,1,1,
ROSS,,Clermont-Ferrand Rossignol,45.785142,3.07075604,1,1,
ROBE,,Ceyrat Route de Berzet,45.728324,3.064083521,1,1,
SACO,,Clermont-Ferrand Salins Pierre de Coubertin,45.769721,3.08306604,1,1,
STMU,,Clermont-Ferrand Stade P. Marcombes,45.7613345,3.082547526,1,1,
SULL,,Clermont-Ferrand Sully,45.7924795,3.074108022,1,1,
TAMA,,Clermont-Ferrand Tamaris,45.78840992,3.06289728,1,1,
THTH,,Clermont-Ferrand Thévenot Thibaud,45.788434,3.089956022,1,1,
TRCH,,Clermont-Ferrand Trémonteix Charcot,45.79284121,3.070454314,1,1,
WILS,,Ceyrat Wilson,45.730032,3.064311522,1,1,
ALVA,,Clermont-Ferrand Alexandre Varenne,45.7767025,3.077670544,1,1,
BARG,,Chamalières Bargoin,45.763644,3.060346524,1,1,
BARS,,Royat Barreiras,45.763242,3.049248022,1,1,
BARR,,Royat Barrieu,45.7646125,3.054446022,1,1,
BERC,,Royat Berceaux,45.76450351,3.053217019,1,1,
BERT,,Chamalières Berthelot,45.78069679,3.070157391,1,1,
CHMA,,Chamalières Mairie,45.77566372,3.067956023,1,1,
CRFR,,Ceyrat Croix de Frun,45.758501,3.063261022,1,1,
EGAL,,Ceyrat Égalité,45.7463195,3.060357023,1,1,
EURO,,Chamalières Europe,45.77444217,3.063522973,1,1,
FRRO,,Clermont-Ferrand Franklin Roosevelt,45.7774226,3.07280669,1,1,
GAPE,,Clermont-Ferrand Gabriel Péri,45.7808635,3.076274044,1,1,
GAIL,,Clermont-Ferrand Gaillard,45.77997517,3.082106166,1,1,
GARN,,Chamalières Garnaudes,45.772887,3.060552022,1,1,
GRVN,,Ceyrat Gravenoire,45.753243,3.062421022,1,1,
BRUN,,Ceyrat La Brune,45.7509015,3.062068522,1,1,
MTGN,,Royat Montagnards,45.76033,3.062199024,1,1,
POST,,Royat Poste,45.7659355,3.056475531,1,1,
RENO,,Royat Renoux,45.764459,3.055929022,1,1,
ROPE,,ROYAT AvanC-Breuil,45.7657715,3.041979039,1,1,
ROPA,,Chamalières ROYAT Pl. Allard,45.76776291,3.056364173,1,1,
TECH,,Chamalières Teilhard de Chardin,45.7758155,3.061959525,1,1,
THER,,Chamalières Thermes,45.7699965,3.058122522,1,1,
VERG,,Ceyrat Vergers,45.756314,3.064087022,1,1,
VILL,,Chamalières Villars RN,45.775449,3.05946054,1,1,
VORO,,Chamalières Voie Romaine,45.7753805,3.054715522,1,1,
AVPO,,"Cournon-d'Auvergne Av. du Pont",45.735353,3.207298522,1,1,
BMES,,Clermont-Ferrand Beaumes,45.781444,3.063146522,1,1,
CARN,,Clermont-Ferrand Carnot,45.7762475,3.094643031,1,1,
CEVE,,"Cournon-d'Auvergne Cévennes",45.7273155,3.189533452,1,1,
CHAZ,,Aubière Chazots,45.7533685,3.136696022,1,1,
FACU,,Clermont-Ferrand Faculté,45.776312,3.091005022,1,1,
FOIR,,"Cournon-d'Auvergne Foirail",45.7317515,3.203580024,1,1,
FOBA,,Clermont-Ferrand Fontaine du Bac,45.76265805,3.12269077,1,1,
GARD,,"Cournon-d'Auvergne Gardes",45.740686,3.188828522,1,1,
GOUR,,Aubière Gourgat,45.7538675,3.139228522,1,1,
JAUD,,Clermont-Ferrand Jaude,45.77693933,3.08127436,1,1,
POEL,,"Cournon-d'Auvergne Poëlade",45.738381,3.180151539,1,1,
SARR,,Clermont-Ferrand La Sarre,45.769563,3.114909022,1,1,
LCHA,,Clermont-Ferrand Le Château,45.77012,3.107318545,1,1,
LIMO,,Clermont-Ferrand Limousin,45.787826,3.064793036,1,1,
MIDI,,"Cournon-d'Auvergne Midi",45.7319915,3.186329522,1,1,
POSA,,Clermont-Ferrand Pont de Sarliève,45.7565185,3.149190034,1,1,
PRDL,,Clermont-Ferrand Pierre-Joseph Proudhon,45.773267,3.09836304,1,1,
ROUS,,Aubière Roussillon,45.75282168,3.131984288,1,1,
SAVA,,Chamalières Savarounes,45.779164,3.062383031,1,1,
TRAV,,Chamalières Traversin,45.7834145,3.063185022,1,1,
DEMO,,Clermont-Ferrand Delille Montlosier,45.78084599,3.091163639,1,1,
VERT,,Clermont-Ferrand Vertaizon,45.77469105,3.100619273,1,1,
ABPR,,Clermont-Ferrand Abbé Prévost,45.7929615,3.084320031,1,1,
CLHU,,Clermont-Ferrand Clovis Hugues,45.7727385,3.110556522,1,1,
CRLE,,Clermont-Ferrand Croix Leonardoux,45.7734705,3.123019039,1,1,
COTE,,Clermont-Ferrand Les Côtes,45.79973,3.084502022,1,1,
LYSA,,Clermont-Ferrand Lycée Sidoine Apollinaire,45.78180263,3.086721024,1,1,
MASP,,Clermont-Ferrand Maison des Sports,45.78655807,3.084548406,1,1,
PARL,,Clermont-Ferrand Parlette,45.7764105,3.118155531,1,1,
SAAL,,Clermont-Ferrand Salvador Allende,45.7729895,3.117072022,1,1,
STRA,,Clermont-Ferrand St Rames,45.772947,3.102356522,1,1,
HEBA,,Clermont-Ferrand Henri Barbusse,45.78364446,3.084354831,1,1,
BEPA,,"BEAUMONT Pl. d'Armes",45.751399,3.088376022,1,1,
CHAT,,Beaumont Châtaigneraie,45.75014453,3.071954471,1,1,
CHSS,,Beaumont Chaussades,45.750888,3.076610022,1,1,
COMO,,Beaumont Collège Mortaix,45.750962,3.09644804,1,1,
PARC,,Beaumont Le Parc,45.754636,3.097327015,1,1,
BEMA,,Beaumont Matussat Châtaigneraie,45.748943,3.069278035,1,1,
RESI,,Beaumont Résistance,45.7504425,3.090766405,1,1,
RIVI,,Clermont-Ferrand Rivière,45.7684825,3.077843023,1,1,
SAPA,,Clermont-Ferrand Salins Pasteur,45.771625,3.082205022,1,1,
VALL,,Clermont-Ferrand Vallières,45.759867,3.085362031,1,1,
VOLN,,Clermont-Ferrand Volney,45.7637,3.079963522,1,1,
DREL,,Clermont-Ferrand Drelon,45.77024,3.080091022,1,1,
AGRI,,Clermont-Ferrand Agriculture,45.779688,3.128695022,1,1,
ARAG,,Clermont-Ferrand Arago,45.774818,3.103758522,1,1,
BREZ,,Clermont-Ferrand Brézet,45.779851,3.132998031,1,1,
CHAN,,Clermont-Ferrand Chanelles,45.789461,3.080305022,1,1,
CONM,,Clermont-Ferrand Condamine,45.7770625,3.112938022,1,1,
GLAC,,Clermont-Ferrand Glacière,45.79223,3.079275022,1,1,
KEPL,,Clermont-Ferrand Kepler,45.77924321,3.120896072,1,1,
PAGA,,Clermont-Ferrand La Pardieu Gare,45.76658418,3.134310279,1,1,
RONZ,,Clermont-Ferrand Ronzières,45.77909201,3.125748024,1,1,
SOUL,,Clermont-Ferrand René Soulet,45.776347,3.10839554,1,1,
RODI,,Clermont-Ferrand Rodolphe Diesel,45.779729,3.136899031,1,1,
AUBG,,"Clermont-Ferrand Agrippa d'Aubigné",45.77830423,3.108601688,1,1,
AUSE,,AULNAT St Exupéry,45.795469,3.172242022,1,1,
AVIA,,Clermont-Ferrand Aviation,45.7935041,3.15624461,1,1,
GECH,,GERZAT Champfleuri,45.835345,3.147658022,1,1,
CUGN,,Clermont-Ferrand Cugnot,45.78127,3.123136522,1,1,
EDRO,,Aulnat Edmond Rostand,45.798833,3.171135522,1,1,
ELRE,,Clermont-Ferrand Elisée Reclus,45.790545,3.135410035,1,1,
EMZO,,Aulnat Emile Zola,45.79419302,3.16040903,1,1,
FRLU,,Clermont-Ferrand Frères Lumière,45.789341,3.135148522,1,1,
GAGA,,Clermont-Ferrand Gagarine,45.7925895,3.14450703,1,1,
GONC,,Clermont-Ferrand Goncourt,45.783968,3.068753522,1,1,
HERB,,Clermont-Ferrand Herbet,45.77982055,3.114796115,1,1,
JEME,,Clermont-Ferrand Jean Mermoz,45.7915755,3.13974002,1,1,
JUVE,,Clermont-Ferrand Jules Verne,45.7863205,3.136763522,1,1,
CHAP,,Aulnat Les Chapelles,45.7991395,3.167975523,1,1,
LYAB,,Clermont-Ferrand Lycée A. Brugière,45.8018615,3.110612331,1,1,
NARV,,Clermont-Ferrand Narvik,45.8149175,3.105893531,1,1,
ANFR,,Clermont-Ferrand Anatole France,45.7789355,3.112739522,1,1,
PACU,,Aulnat Pasteur Curie,45.79442502,3.165100477,1,1,
REPU,,Aulnat République,45.794211,3.162306022,1,1,
BEZA,,Romagnat Bezance,45.731457,3.099750022,1,1,
CRNV,,Beaumont Croix Neuve,45.754373,3.087690522,1,1,
DOLE,,Clermont-Ferrand Etienne Dolet,45.7648345,3.086612044,1,1,
FORE,,Romagnat Fernand Forest,45.743151,3.09535654,1,1,
LION,,Clermont-Ferrand Liondards,45.7590355,3.086630022,1,1,
PALE,,Romagnat Pâles,45.741031,3.096959522,1,1,
PRCI,,Beaumont Percières,45.756951,3.086903022,1,1,
POUR,,Beaumont Pourliat,45.746201,3.094101022,1,1,
RABA,,Clermont-Ferrand Rabanesse,45.767829,3.086858523,1,1,
ROSE,,Romagnat Roseraie,45.736392,3.099028022,1,1,
REBR,,Beaumont René Brut,45.752759,3.088118022,1,1,
BEAU,,Chamalières Beausite,45.7681365,3.061967545,1,1,
PEBO,,Pérignat-lès-Sarliève Bonneval,45.73022,3.144080522,1,1,
CICE,,Chamalières Cité Centre Enfance,45.76872494,3.072588012,1,1,
COJC,,Aubière Collège Joliot Curie,45.7520375,3.11939704,1,1,
COLO,,Chamalières Colombier,45.780452,3.048121022,1,1,
COMB,,Chamalières Combes,45.766624,3.066948522,1,1,
EGPE,,Pérignat-lès-Sarliève Eglise de Pérignat,45.7365705,3.141128544,1,1,
GALO,,Chamalières Galoubies,45.767531,3.069242522,1,1,
HACM,,Chamalières Hauts de CHAMALIÈRES,45.782246,3.053184044,1,1,
LAND,,Clermont-Ferrand Landais,45.763818,3.116370022,1,1,
MARG,,Aubière Margeride,45.76098365,3.120211474,1,1,
MASS,,Chamalières Massenet,45.770282,3.064111022,1,1,
MEUN,,Clermont-Ferrand Meuniers,45.76561786,3.104484893,1,1,
OBSE,,Aubière Observatoire,45.7640955,3.112659022,1,1,
PAMO,,Chamalières Parc Montjoly,45.7735725,3.067227031,1,1,
PACE,,Chamalières Paul Cézanne,45.7805195,3.050918524,1,1,
POME,,Pérignat-lès-Sarliève Pommeraie,45.72713,3.145911022,1,1,
PORO,,Clermont-Ferrand Port Royal,45.7702985,3.101561523,1,1,
RADI,,Clermont-Ferrand Raye Dieu,45.7686595,3.104386022,1,1,
RCHF,,Clermont-Ferrand Rochefeuille,45.765834,3.108415031,1,1,
SAET,,"Chamalières Sable d'Etampes",45.7677105,3.06452704,1,1,
SACR,,Clermont-Ferrand Sacré Coeur,45.771882,3.098909022,1,1,
SOGR,,Pérignat-lès-Sarliève Sounely Gravins,45.739568,3.140375522,1,1,
VOLT,,Chamalières Voltaire INSPÉ,45.7683695,3.075186543,1,1,
GAMA,,Aubière Gamay,45.7489855,3.134376523,1,1,
REGE,,Clermont-Ferrand Regensburg,45.77059,3.077563035,1,1,
AERO,,Aulnat Aéroport,45.7917565,3.161395022,1,1,
BATI,,Gerzat Batignolle,45.837424,3.14754054,1,1,
BOUR,,Gerzat Bourly,45.828788,3.146088024,1,1,
BRUG,,Clermont-Ferrand Brugeron,45.8085915,3.129297522,1,1,
CHAB,,Gerzat Chabesses,45.8178195,3.143089022,1,1,
COAF,,Gerzat Collège Anatole France,45.8281525,3.154283022,1,1,
GERO,,GERZAT Rochefort,45.8308825,3.151273522,1,1,
GRAV,,Clermont-Ferrand Gravanches,45.78916496,3.118009041,1,1,
PEGU,,Gerzat Les Pègues,45.8241875,3.149623522,1,1,
LIMA,,Gerzat Limagne,45.831339,3.145398522,1,1,
MAPA,,Clermont-Ferrand Marcel Paul,45.82685005,3.124380545,1,1,
PASC,,Gerzat Pascal,45.828716,3.148597022,1,1,
PATU,,Gerzat Patural,45.827826,3.150938522,1,1,
PORT,,Clermont-Ferrand Portefort,45.798947,3.117710522,1,1,
TRIO,,Clermont-Ferrand Trioux,45.8024095,3.117174022,1,1,
MART,,Gerzat Martyrs,45.823056,3.146152022,1,1,
PLCO,,Cébazat Pl. des Communes,45.82971909,3.098417477,1,1,
EDQU,,Clermont-Ferrand Edgar Quinet,45.8050665,3.118756031,1,1,
GREN,,Clermont-Ferrand Grenier,45.769146,3.123831022,1,1,
PONT,,Clermont-Ferrand Le Pont,45.773543,3.120384022,1,1,
MERC,,Clermont-Ferrand Mercoeur,45.8096035,3.119740522,1,1,
HERM,,"Clermont-Ferrand L'Hermitage",45.76526,3.12559504,1,1,
AUZO,,"Cournon-d'Auvergne Auzon",45.72534559,3.197120734,1,1,
CHMT,,Gerzat Champarmont,45.8359675,3.14421104,1,1,
CORI,,"Cournon-d'Auvergne Collège de la Ribeyre",45.7283365,3.203655037,1,1,
COHO,,Le Cendre Hortensias,45.72697329,3.189534486,1,1,
BRUM,,Ceyrat Frédéric Brunmurol,45.7329335,3.06435654,1,1,
CEFO,,CEYRAT Fontimbert,45.734011,3.075657022,1,1,
JANO,,Ceyrat Janolle,45.7314075,3.071999522,1,1,
OCLE,,"Royat L'Oclède",45.758863,3.055245022,1,1,
MTRO,,Ceyrat Montrognon,45.73214104,3.066484784,1,1,
CHOM,,Romagnat Chomontel,45.7308975,3.096672022,1,1,
CLMS,,Romagnat Clémensat,45.722326,3.080092522,1,1,
SERV,,Romagnat La Serve,45.727444,3.091730022,1,1,
LACX,,Romagnat Lacheix,45.7236225,3.083366522,1,1,
CARM,,Clermont-Ferrand Les Carmes,45.78293846,3.095751146,1,1,
TEYT,,Romagnat Les Teytos,45.724886,3.085490022,1,1,
MTAN,,Romagnat Montant,45.729085,3.09453352,1,1,
PAIL,,Romagnat Paillards,45.7261455,3.090864022,1,1,
OPME,,ROMAGNAT Opme,45.71086524,3.090019402,1,1,
SACH,,Romagnat Saulzet Le Chaud,45.71373601,3.070947925,1,1,
TILL,,Romagnat Tilleuls,45.7253045,3.088174522,1,1,
GRAI,,Châteaugay Graviers,45.84583,3.109487048,1,1,
MAIL,,Châteaugay Le Maillot,45.84930744,3.102178207,1,1,
CHBE,,Châteaugay Les Chambérys,45.84798801,3.091061512,1,1,
PIST,,Clermont-Ferrand Les Pistes,45.79907723,3.113210335,1,1,
MACH,,Châteaugay Mairie,45.84987854,3.084161357,1,1,
MTQU,,Châteaugay Montquerier,45.85078227,3.106916955,1,1,
LEMA,,Aulnat Léon Maniez,45.79670481,3.164478825,1,1,
CHCT,,Nohanent Champcourt,45.815815,3.057276022,1,1,
EGAR,,"Sayat Eglise d'ARGNAT",45.8449292,3.030919042,1,1,
CHEY,,Nohanent La Cheyre,45.803758,3.056031022,1,1,
LETR,,Sayat Letrade,45.82536,3.050342522,1,1,
SABA,,"SAYAT Bel'Air",45.831456,3.054579004,1,1,
BEAS,,Le Cendre Beauséjour,45.72409,3.191930522,1,1,
ESMA,,Le Cendre Espace des Marronniers,45.7219285,3.186264521,1,1,
FORU,,Le Cendre Forum,45.71933071,3.183578318,1,1,
GACO,,Le Cendre Gare Le Cendre Orcet,45.72333397,3.188957748,1,1,
VECA,,Le Cendre Verger du Caire,45.7181687,3.18664967,1,1,
LAIA,,Clermont-Ferrand AIA,45.777834,3.167396523,1,1,
CHDG,,Lempdes Charles de Gaulle,45.76939235,3.198226808,1,1,
CRBA,,Lempdes Croix Basse,45.7748355,3.193503522,1,1,
GAND,,Clermont-Ferrand Gandaillat,45.778686,3.157354522,1,1,
GARG,,Lempdes Gargailles,45.7703605,3.189217023,1,1,
GRAS,,Lempdes Grassette,45.77357205,3.181494523,1,1,
HALL,,Lempdes Hallstadt,45.77172555,3.185953232,1,1,
LEPO,,LEMPDES Le Pontel,45.775795,3.196263526,1,1,
MALE,,Lempdes Mairie,45.76835985,3.197330615,1,1,
NYMP,,Lempdes Nymphea,45.772503,3.196128522,1,1,
INCR,,Clermont-Ferrand INRAE Crouël,45.778916,3.142963044,1,1,
CRBL,,Pont-du-Château Croix Blanche,45.79924955,3.244539101,1,1,
GRAN,,Lempdes Grangevieille,45.775782,3.191544521,1,1,
LECE,,Pont-du-Château Le Cèdre,45.79968047,3.252849754,1,1,
LERU,,Pont-du-Château Le Ruchon,45.79768245,3.238551668,1,1,
MILA,,Lempdes Milan,45.78094,3.206419022,1,1,
MBOI,,Pont-du-Château Montboissier,45.7983505,3.258255523,1,1,
PECH,,Pont-du-Château Petit Champ,45.7962335,3.233549522,1,1,
PTDA,,"Pont-du-Château Pont d'Allier",45.7947505,3.258350021,1,1,
RECA,,Pont-du-Château René Cassin,45.79993901,3.249329509,1,1,
CRRA,,Pont-du-Château Croix des Rameaux,45.80491137,3.252467299,1,1,
ETRE,,"Pont-du-Château L'Étredelle",45.80072622,3.261485604,1,1,
LISA,,Pont-du-Château La Lissandre,45.789803,3.225207523,1,1,
CAMP,,Aubière UCA - Campus Cézeaux,45.758905,3.113813026,1,1,
CEPE,,Aubière Cézeaux Pellez,45.76129212,3.1088727,1,1,
COAC,,Clermont-Ferrand Collège A. Camus,45.80763697,3.107432688,1,1,
GRVI,,Clermont-Ferrand Gravière,45.78969518,3.110267713,1,1,
HOVI,,Clermont-Ferrand Hôtel de Ville,45.78070541,3.085304898,1,1,
CHAU,,Aubière La Chaux,45.76093824,3.104625394,1,1,
MTFD,,Clermont-Ferrand Montferrand La Fontaine,45.79154323,3.114949581,1,1,
SJDO,,Clermont-Ferrand St Jacques Dolet,45.7651062,3.089039047,1,1,
STMM,,Clermont-Ferrand Stade M. Michelin,45.78772997,3.106272282,1,1,
CHES,,Clermont-Ferrand CHU Estaing,45.7847585,3.108552522,1,1,
DUCL,,Chamalières Duclaux,45.776192,3.071852022,1,1,
MTJO,,Chamalières Montjoly,45.7734765,3.066024022,1,1,
LGRV,,Durtol La Grave,45.796688,3.059932022,1,1,
POTU,,Cébazat Porte de Turin,45.840804,3.125166522,1,1,
LEMO,,Clermont-Ferrand Lemoy,45.817195,3.12260854,1,1,
BLPA,,Aulnat Blaise Pascal,45.794756,3.162829022,1,1,
GAPD,,ORCINES Gare du Panoramique des Dômes,45.7716695,2.98510654,1,1,
BOIS,,Ceyrat Boisvallon,45.7475335,3.063244524,1,1,
SURE,,Clermont-Ferrand Les Sureaux,45.773045,3.113659522,1,1,
STGM,,Clermont-Ferrand Stade G. Montpied,45.81303353,3.121377646,1,1,
PABE,,Chamalières Paul Bert,45.771775,3.065532022,1,1,
ECPB,,Clermont-Ferrand École Pierre Brosselette,45.773994,3.096123035,1,1,
VIVI,,Clermont-Ferrand Viviani,45.80712658,3.118778793,1,1,
TRFE,,Clermont-Ferrand Les Trois Fées,45.83719659,3.104937745,1,1,
BOUS,,Cébazat Boussadet,45.8325645,3.105291522,1,1,
BIOP,,Saint-Beauzire Biopôle,45.8477915,3.166915544,1,1,
CEBO,,Saint-Beauzire Centre Bourg,45.851341,3.180185522,1,1,
STBL,,Saint-Beauzire S.Beauzire Lilas,45.848918,3.174580522,1,1,
MALI,,Clermont-Ferrand Malintrat,45.795234,3.123085522,1,1,
STGR,,Clermont-Ferrand Stade Gravanches,45.801938,3.131819026,1,1,
FOVI,,Pont-du-Château Fourches Vieilles,45.7917805,3.261753531,1,1,
ARBR,,Chamalières CHAMALIÈRES Aristide Briand,45.77399904,3.063844891,1,1,
SOLA,,Clermont-Ferrand Solayer,45.810325,3.111072022,1,1,
LAFL,,"Orcines La Font de L'Arbre",45.76924112,3.007132248,1,1,
CHVA,,Orcines Chez Vasson,45.7876885,3.008714041,1,1,
ORBO,,Orcines Bourg,45.7838745,3.01320651,1,1,
ENVA,,Orcines Enval,45.76468554,2.99783426,1,1,
FTAN,,Orcines Fontanas,45.76849816,3.015582356,1,1,
LAEG,,Saint-Genès-Champanelle Laschamps Église,45.74133,2.967345045,1,1,
MACE,,Saint-Genès-Champanelle Manson Centre,45.7437205,3.011204022,1,1,
BECH,,Saint-Genès-Champanelle Berzet Chapelle,45.7243983,3.043549558,1,1,
CHCE,,Saint-Genès-Champanelle Chatrat Centre,45.72820827,3.005213511,1,1,
CHPX,,Saint-Genès-Champanelle Champeaux,45.74302718,3.041257482,1,1,
NADA,,Saint-Genès-Champanelle Nadaillat,45.69182054,3.033984538,1,1,
THCE,,Saint-Genès-Champanelle Theix Centre,45.706102,3.021787022,1,1,
THED,,Saint-Genès-Champanelle Thèdes,45.73537,3.023043569,1,1,
THGC,,Saint-Genès-Champanelle Theix Grand Champ,45.706182,3.037980022,1,1,
QUBE,,Clermont-Ferrand Québec,45.803876,3.133250013,1,1,
ZOGR,,Clermont-Ferrand Zone des Gravanches,45.805406,3.136990013,1,1,
BIDE,,Saint-Beauzire Biopole 2,45.8501185,3.170382031,1,1,
RHON,,Gerzat Rhonez,45.814135,3.140513531,1,1,
GAMB,,Gerzat Gambetta,45.8152315,3.143868531,1,1,
JUFE,,Gerzat Jules Ferry,45.8205,3.144415535,1,1,
MTRI,,Le Cendre La Montorière,45.711864,3.191130531,1,1,
ALAU,,"Le Cendre Les Allées d'Aussandra",45.71392537,3.193956153,1,1,
RTMA,,Le Cendre Route des Martres,45.71733131,3.190939776,1,1,
BATF,,Aubière Bâtiment F,45.745704,3.110858035,1,1,
BATA,,Aubière Bâtiment A,45.746126,3.112341035,1,1,
BATC,,Aubière AUBIÈRE Le Prat - Bâtiment C,45.744678,3.11093304,1,1,
BLDX,,Cébazat Les Balladoux,45.8429465,3.119204048,1,1,
CLAU,,Clermont-Ferrand Joseph Claussat,45.7787,3.063155022,1,1,
RICH,,Chamalières Richelieu,45.7791755,3.066851535,1,1,
AMME,,"Cournon-d'Auvergne Anne-Marie Menut",45.746542,3.173472018,1,1,
BONN,,Clermont-Ferrand Bonnabry,45.776934,3.078689018,1,1,
CITE,,Aubière Cité 1,45.762064,3.118209031,1,1,
CXSG,,Mezel Croix St Guillaume,45.74962,3.24067553,1,1,
DASP,,Dallet Salle Polyvalente,45.77045598,3.240824651,1,1,
LAGO,,Dallet La Gobe,45.76644502,3.238971381,1,1,
RPSB,,Pérignat-sur-Allier Rond-Point de St Bonnet,45.728167,3.235557031,1,1,
LEPU,,"Pérignat-sur-Allier L'Épouvantail",45.729337,3.232069035,1,1,
ARSE,,Clermont-Ferrand Arsenal,45.7979235,3.130848027,1,1,
TREY,,Clermont-Ferrand Trémonteix Paul Eychart,45.7931015,3.066418536,1,1,
RELA,,"Cournon-d'Auvergne René Laennec",45.744371,3.205828031,1,1,
CHLO,,Royat Champlong,45.758921,3.057431032,1,1,
PAMZ,,Clermont-Ferrand Parc de Montjuzet,45.790428,3.07074954,1,1,
ARVE,,Le Cendre Arverne,45.7260575,3.188724031,1,1,
BONO,,Lempdes Bonne Nouvelle,45.7651375,3.201033531,1,1,
ECAR,,Le Cendre École Aragon,45.7218615,3.193296035,1,1,
GOND,,Le Cendre Gondole,45.7174944,3.195476038,1,1,
GARO,,Clermont-Ferrand Gare Routière,45.7705255,3.082466531,1,1,
COMA,,"Cournon-d'Auvergne Cournon Mairie",45.736971,3.192336039,1,1,
CHSO,,Beaumont Chemin du Sou,45.7488005,3.087486535,1,1,
VERD,,Beaumont Verdi,45.745738,3.077061535,1,1,
ARRI,,Pont-du-Château Arthur Rimbaud,45.801584,3.237316031,1,1,
BOUL,,Pont-du-Château La Boule,45.809595,3.241937531,1,1,
CARR,,Pont-du-Château Carrosse,45.8031705,3.24754353,1,1,
CHPO,,Pont-du-Château Champ des Poix,45.79429,3.23471453,1,1,
DORO,,Pont-du-Château Docteur Royet,45.8035745,3.24429553,1,1,
FAEG,,"Pont-du-Château Fabre d'Églantine",45.79956,3.229938035,1,1,
NIGU,,Pont-du-Château Les Nigues,45.80625614,3.239264402,1,1,
PEYR,,Pont-du-Château Le Peyron,45.78957778,3.230991039,1,1,
PLAN,,Pont-du-Château Les Plantades,45.80455905,3.235435326,1,1,
PEPA,,Pont-du-Château Petit Pan,45.79815,3.232359031,1,1,
QUAR,,Pont-du-Château La Quarte,45.80029776,3.243398757,1,1,
ECJA,,Pont-du-Château École Jean Alix,45.793007,3.254790035,1,1,
BONZ,,Orcines Bournazet,45.78527,3.027209031,1,1,
BREU,,Aulnat Breuil,45.795124,3.167812031,1,1,
JEBA,,Aulnat Jean Bayard,45.800715,3.167819031,1,1,
JECO,,Aulnat Jean Cocteau,45.7971325,3.171733531,1,1,
MEFR,,Aulnat Mendès France,45.799595,3.165995031,1,1,
PISE,,Aulnat Pierre Semard,45.792785,3.168973035,1,1,
SIRO,,Aulnat Sirocco,45.800545,3.171418531,1,1,
EREA,,Romagnat EREA,45.706429,3.096797031,1,1,
ARDE,,Pont-du-Château Les Ardeliers,45.790706,3.235080531,1,1,
SARE,,Cébazat Sarre,45.83555135,3.096136653,1,1,
GRVO,,Clermont-Ferrand Gravouses,45.784678,3.073573031,1,1,
CXDA,,Pérignat-lès-Sarliève Croix Notre-Dame,45.733172,3.142652535,1,1,
CHCH,,Mezel Chemin du Cheix,45.759657,3.238359024,1,1,
JEFO,,Mezel Jean Fourcade,45.752886,3.24171803,1,1,
MURQ,,"Clermont-Ferrand Musée d'Art Roger Quilliot",45.793853,3.117220033,1,1,
COTC,,Chamalières Collège Teilhard de Chardin,45.77600342,3.061370471,1,1,
HERL,,"Pont-du-Château L'Herbelière",45.7928265,3.23993153,1,1,
PAUL,,Clermont-Ferrand Paulines,45.775175,3.095560031,1,1,
RIGS,,Riom Chatelguyon Gare de RIOM,45.89042686,3.119994713,1,1,
RIPF,,Riom Chatelguyon Parc des Fêtes,45.88206986,3.116335094,1,1,
MERS,,Ménétrol Centre Commercial Riom Sud,45.87855381,3.116716728,1,1,
MECC,,Ménétrol Arrière Centre Commercial,45.87704633,3.118281605,1,1,
PLAR,,Ceyrat Plaine des Sports,45.73631739,3.065544517,1,1,
LYGE,,Clermont-Ferrand Lycée Gergovie,45.78268469,3.117023056,1,1,
NEWT,,Clermont-Ferrand Newton,45.7853774,3.128125467,1,1,
ROBO,,"Cournon-d'Auvergne Rosa Bonheur",45.73424928,3.183351724,1,1,
PATI,,Clermont-Ferrand Patinoire,45.761695,3.126390018,1,1,
PAGI,,Clermont-Ferrand Pasteur Gilbert,45.772802,3.077977518,1,1,
SACA,,Clermont-Ferrand Sablon Carnot,45.77658882,3.090144672,1,1,
SALA,,Clermont-Ferrand Sablon Lafayette,45.77227331,3.089995998,1,1,
PICU,,Pont-du-Château Picou,45.79483,3.230235018,1,1,
ECRC,,Pont-du-Château École René Cassin,45.80040782,3.250899942,1,1,
DUCI,,DURTOL Clinique,45.79370388,3.053172025,1,1,
GALA,,Clermont-Ferrand Galaxie,45.78225209,3.073021957,1,1,
FERA,,Clermont-Ferrand Fernand Raynaud,45.77104735,3.102150943,1,1,
CAME,,Clermont-Ferrand Catherine de Médicis,45.76979851,3.110842949,1,1,
LEDV,,Aubière Leonard de Vinci,45.76053,3.135435018,1,1,
CLSA,,Clermont-Sud-Aubière,45.75894549,3.144498486,1,1,
SARL,,"Cournon-d'Auvergne Sarliève",45.74504734,3.153950594,1,1,
GHZE,,"Cournon-d'Auvergne Grande Halle Zénith",45.73910972,3.159663695,1,1,
GADC,,"Cournon-d'Auvergne Gare de Cournon",45.73854625,3.169877547,1,1,
GETI,,"Cournon-d'Auvergne Germaine Tillion",45.74055236,3.174970287,1,1,
ALOT,,"Cournon-d'Auvergne Alouettes",45.73749043,3.177755195,1,1,
LLAC,,"Cournon-d'Auvergne Lac",45.73213506,3.192279278,1,1,
SAMP,,"Cournon-d'Auvergne Samuel Paty",45.73571776,3.192760391,1,1,
PLRE,,"Cournon-d'Auvergne Pl. de la République",45.73883828,3.1965092,1,1,
GESA,,"Cournon-d'Auvergne George Sand",45.7387133,3.20205868,1,1,
LERI,,"Cournon-d'Auvergne Les Rives",45.73814186,3.206247566,1,1,
ALMI,,"Cournon-d'Auvergne Alice Milliat",45.73955441,3.209639346,1,1,
LYRD,,"Cournon-d'Auvergne Lycée René Descartes",45.74305128,3.210178024,1,1,
COAL,,"Cournon-d'Auvergne COURNON Allier",45.74514102,3.210319024,1,1,
ARLM,,Sayat ARGNAT Le Mas,45.84420938,3.025786319,1,1,
SAPC,,Clermont-Ferrand SAYAT Pierre Combe,45.8346308,3.047663219,1,1,
RODM,,Sayat Roche Demie,45.82809658,3.054399694,1,1,
DOJA,,Sayat Docteur Jay,45.82745676,3.051025942,1,1,
LELI,,Sayat Les Littes,45.82177816,3.052829952,1,1,
VALO,,Clermont-Ferrand Vallon,45.78728836,3.068795726,1,1,
BOBE,,Beaumont Boisbeaumont,45.754835,3.096315009,1,1,
FOSB,,Saint-Genès-Champanelle Fontfreyde sous le Bois,45.70085946,3.005747813,1,1,
FOBS,,Saint-Genès-Champanelle Fontfreyde Bascule,45.70306997,3.002732963,1,1,
INTH,,Saint-Genès-Champanelle INRAE Theix,45.71208024,3.016766715,1,1,
GECE,,Saint-Genès-Champanelle St Genès Centre,45.71927397,3.01815292,1,1,
PAFO,,Saint-Genès-Champanelle Pardon Le Four,45.71854363,3.004455432,1,1,
CHTR,,Saint-Genès-Champanelle Chatrat,45.7256345,3.009616009,1,1,
MACD,,Royat Charade,45.74827982,3.028492936,1,1,
BELD,,Clermont-Ferrand Belvédère,45.7581145,3.060610009,1,1,
LSLA,,Royat Louis Landouzy,45.76718182,3.058580562,1,1,
PEGA,,Pérignat-sur-Allier PÉRIGNAT-ÈS-ALLIER La Garde,45.72862,3.243060009,1,1,
VADA,,"Pérignat-sur-Allier Val d'Azur",45.72647371,3.239721863,1,1,
PALA,,"Cournon-d'Auvergne Palavézy",45.73128497,3.207465523,1,1,
RIBE,,"Cournon-d'Auvergne Ribeyre",45.72862875,3.203659434,1,1,
LOUB,,"Cournon-d'Auvergne Loubatières",45.72631777,3.200572094,1,1,
ALFE,,"Cournon-d'Auvergne Alice Ferrières",45.74097186,3.200100634,1,1,
ELTR,,"Cournon-d'Auvergne Elsa Triolet",45.745835,3.209880009,1,1,
FONE,,Lempdes Fontanille,45.77495,3.204590009,1,1,
MAFG,,Mur sur Allier MUR-SUR-ALLIER Font Grande,45.7556107,3.245682138,1,1,
CRDI,,Cébazat Campus RDI,45.84402558,3.123239288,1,1,
ADCI,,Cébazat André Citroën,45.83696,3.125310009,1,1,
SANC,,Gerzat Sancy,45.835115,3.138805009,1,1,
GAGE,,Gare de Gerzat,45.833705,3.143445009,1,1,
NEBO,,Gerzat Neige Bœuf,45.837285,3.149970009,1,1,
GEDO,,GERZAT Donnavignat,45.84129,3.156563509,1,1,
EUVG,,Chamalières Europe V.G.E.,45.77513798,3.063043549,1,1,
BEOR,,Bellevue Orcines,45.78143422,3.031684774,1,1,
BAPI,,Orcines La Baraque Pignol,45.78102635,3.026657387,1,1,
BARQ,,Orcines La Baraque,45.78151578,3.021546796,1,1,
COSA,,Orcines Collège Ste Anne,45.7820395,3.012087509,1,1,
CEPA,,Le Cendre LE CENDRE Pandières,45.711825,3.184405009,1,1,
MARE,,Le Cendre Maronne,45.71107,3.188050009,1,1,
POIN,,Le Cendre Pointilloux,45.72865221,3.187218533,1,1,
BOOR,,"Cournon-d'Auvergne Boutons d'Or",45.7314846,3.185474583,1,1,
COGE,,"Cournon-d'Auvergne COURNON Le Gergovie",45.73142964,3.196390369,1,1,
CHTI,,Clermont-Ferrand Charles Tillon,45.77506745,3.127483858,1,1,
ARFA,,Clermont-Ferrand Armand Fallières,45.79055,3.066425009,1,1,
VICH,,Clermont-Ferrand Victor Charreton,45.793315,3.064325009,1,1,
JABR,,Clermont-Ferrand Jacques Brel,45.7938425,3.072219009,1,1,
BOUX,,Clermont-Ferrand Bouleaux,45.796965,3.078065009,1,1,
BDPA,,Clermont-Ferrand Boulevard Panoramique,45.79947,3.080630009,1,1,
BREN,,Clermont-Ferrand Brennus,45.81159198,3.103383564,1,1,
QUAT,,Cébazat Quartières,45.840965,3.105415009,1,1,
ALEV,,Cébazat Albert Evaux,45.842875,3.112638009,1,1,
CGMA,,Châteaugay CHÂTEAUGAY Malalittes,45.85432,3.085800018,1,1,
CEBE,,CEYRAT La Beaumière,45.74502511,3.069979314,1,1,
BECO,,BEAUMONT Collège Molière,45.75092857,3.096448455,1,1,
CHMD,,Beaumont Champ Madame,45.74881,3.087500009,1,1,
BEMI,,Beaumont Bernard Maître,45.74671,3.081805013,1,1,
STAR,,"Beaumont Stade de l'Artière",45.74468,3.075550009,1,1,
PRHA,,Beaumont Prés Hauts,45.74653,3.077230009,1,1,
CEAR,,Clermont-Ferrand CEYRAT Arténium,45.73351,3.068550009,1,1,
PCLM,,Pont-du-Château PONT-DU-CHÂTEAU Lamartine,45.80684,3.243785009,1,1,
JDLF,,Pont-du-Château Jean de La Fontaine,45.80687,3.236370017,1,1,
MADV,,Pont-du-Château Marguerite de Valois,45.80441397,3.234029451,1,1,
HENR,,Pont-du-Château Henri IV,45.80152,3.233455013,1,1,
VAUR,,Pont-du-Château Vaures,45.79682308,3.242107909,1,1,
GPDC,,Pont-du-Château Gare de Pont-du-Château,45.78885987,3.238306063,1,1,
LCHL,,Pont-du-Château Champ Lamet,45.78477121,3.217237307,1,1,
LPMA,,LEMPDES Marmilhat,45.77712027,3.175679288,1,1,
COPE,,"Cournon-d'Auvergne COURNON Plan d'Eau",45.73930104,3.213881979,1,1,
CASS,,"Cournon-d'Auvergne Camille Saint-Saëns",45.73393813,3.205979785,1,1,
ARIC,,"Cournon-d'Auvergne Ariccia",45.7317377,3.203605596,1,1,
LIVS,,"Cournon-d'Auvergne Livradois",45.73338,3.200560017,1,1,
ANZE,,"Cournon-d'Auvergne Anzelle",45.74193211,3.18169012,1,1,
EMCO,,"Cournon-d'Auvergne Emile Coulaudon",45.75487937,3.156761637,1,1,
AUZR,,Aubière ZI Ribes,45.75486829,3.144005112,1,1,
GUFL,,Aubière Gustave Flaubert,45.75722357,3.127201841,1,1,
LETO,,Clermont-Ferrand Les Tonnelles,45.72871549,3.100740918,1,1,
ALTO,,Romagnat Alexis de Tocqueville,45.73395034,3.098496822,1,1,
KESS,,Clermont-Ferrand Kessler,45.77010493,3.087297687,1,1,
UCAC,,Clermont-Ferrand UCA - Campus Centre,45.77123615,3.088773309,1,1,
AUTH,,Clermont-Ferrand Augustin Thierry,45.78948417,3.084273079,1,1,
MAPR,,Clermont-Ferrand Maurice Pourchon,45.79151646,3.087721967,1,1,
CLDV,,Clermont-Ferrand Clos des Vignes,45.79285164,3.093734583,1,1,
GROL,,Clermont-Ferrand Grolière,45.7888785,3.102813509,1,1,
RODD,,Clermont-Ferrand Rodade,45.79167,3.106620009,1,1,
ROMA,,Clermont-Ferrand Robert Marchadier,45.79488,3.109430009,1,1,
LOCT,,Clermont-Ferrand Louis Chartoire,45.79720875,3.136497278,1,1,
JEAU,,Clermont-Ferrand Jean Auchatraire,45.79787502,3.14188389,1,1,
AUVI,,Aulnat Village,45.795445,3.159505009,1,1,
AUMA,,Aulnat Mairie,45.79510945,3.165260489,1,1,
REBO,,Aulnat René Bonhomme,45.79912186,3.16796252,1,1,
BCSV,,BLANZAT Clos St Vincent,45.82366,3.070555009,1,1,
PIMO,,Cébazat Pierre Montgroux,45.83148183,3.096524179,1,1,
ANTH,,Clermont-Ferrand André Theuriet,45.76634374,3.078135349,1,1,
PONC,,Clermont-Ferrand Poncillon,45.76199985,3.085339529,1,1,
INCH,,INSPÉ Chamalières,45.77404644,3.072479128,1,1,
STDU,,Stade de Durtol,45.79755617,3.053276548,1,1,
PLFA,,Nohanent Pl. de la Farge,45.80886743,3.056162199,1,1,
ROME,,Aubière Roger Maerte,45.75963788,3.122944245,1,1,
AUQC,,Aubière AUBIÈRE Quartier Chambon,45.75218941,3.128974275,1,1,
LYVG,,"Chamalières Lycée Valéry Giscard d'Estaing",45.77670273,3.051228679,1,1,
FOFA,,Chamalières Fontmaure La FAC,45.77544899,3.059460434,1,1,
HEBE,,Clermont-Ferrand Hector Berlioz,45.76943666,3.076402869,1,1,
PEHO,,Pérignat-lès-Sarliève PÉRIGNAT-LES-SARLIÈVE Les Horts,45.72501564,3.147119003,1,1,
LSPA,,Royat Louis Pasteur,45.76434636,3.044653753,1,1,
MIAN,,Clermont-Ferrand Michel Ange,45.760475,3.131780009,1,1,
EVGA,,Aubière Évariste Galois,45.759105,3.133985009,1,1,
LESA,,Aubière Les Sauzes,45.757025,3.137250009,1,1,
CELI,,CEYRAT Libération,45.720005,3.067954009,1,1,
JEFA,,Pont-du-Château Jean Zay,45.78817,3.260415009,1,1,
PCCH,,Pont-du-Château PONT-DU-CHÂTEAU Chambon Haut,45.787855,3.254150009,1,1,
PADI,,Clermont-Ferrand Paul Diomède,45.78409269,3.077127121,1,1,
GOBE,,Clermont-Ferrand Gordon Bennett,45.786205,3.079129993,1,1,
LROC,,LEMPDES La Rochelle,45.780085,3.199645009,1,1,
PIBO,,Lempdes Piscine M. Boubat,45.77942,3.194330009,1,1,
JMBE,,Cébazat Jean-Marie Bellime,45.83579671,3.095084269,1,1,
JEBD,,Clermont-Ferrand Jean-Baptiste Dumas,45.78358,3.09449001,1,1,
RESJ,,Clermont-Ferrand Résidence St Jean,45.78738792,3.117485958,1,1,
GEHA,,Clermont-Ferrand Gisèle Halimi,45.78632928,3.113395589,1,1,
BIHD,,"Clermont-Ferrand Bibliothèque de l'Hôtel-Dieu",45.77327646,3.082616782,1,1,
CHJF,,CHAPPES J. Ferry,45.867541,3.218064009,1,1,
CHPM,,CHAPPES Mairie,45.86950818,3.220212807,1,1,
CERH,,Chappes Centre de Recherche,45.87230144,3.219345285,1,1,
BIOL,,Clermont-Ferrand Biopôle 2,45.85010961,3.170368869,1,1,
MAJO,,MALINTRAT La Joselle,45.8153688,3.186683913,1,1,
MAMA,,Mairie MALINTRAT,45.8112548,3.189079713,1,1,
LMAE,,"Les Martres-d'Artière LES MARTRES D'ARTIÈRE École",45.8366733,3.265615567,1,1,
LMEG,,"Les Martres-d'Artière LES MARTRES D'ARTIÈRE Église",45.8332984,3.260257467,1,1,
CORM,,"Les Martres-d'Artière Cormède",45.8190913,3.239336817,1,1,
RILV,,Clermont-Ferrand Lycée Virlogeux,45.8862342,3.114579568,1,1,
CHFO,,Clermont-Ferrand Champfleuri Forest,45.793205,3.100550018,1,1,
ELJA,,Gerzat Elie Jaloustre,45.82248589,3.145383923,1,1,
RESP,,Clermont-Ferrand Résidence Pasteur,45.7576,3.111120018,1,1,
PRGN,,Clermont-Ferrand Prugnard,45.82796195,3.100687283,1,1,
MACR,,Clermont-Ferrand Marie Curie,45.83589,3.101914018,1,1,
COHP,,Clermont-Ferrand Collège Henri Pourrat,45.73256113,3.066194075,1,1,
COLC,,Clermont-Ferrand Collège La Charme,45.79782545,3.119258898,1,1,
COMC,,Clermont-Ferrand Collège Marc Bloch,45.7369677,3.192330517,1,1,
SGCR,,Clermont-Ferrand St Genès La Côte Rouge,45.72128558,3.022538441,1,1,
BZMO,,Clermont-Ferrand Berzet Les Moulèdes,45.72311225,3.037894618,1,1,
BZSG,,Clermont-Ferrand Berzet St Georges,45.72497124,3.048091653,1,1,
BCHI,,"Clermont-Ferrand Berzet Champ d'Issart",45.72813507,3.049344438,1,1,
BNCH,,Clermont-Ferrand Beaune Le Chaud,45.72634132,2.989633101,1,1,
BCPN,,Clermont-Ferrand Beaune Le Chaud Pré Neuf,45.72794783,2.988345641,1,1,
LABU,,Clermont-Ferrand Laschamps Busageix,45.73793157,2.970248485,1,1,
LSMO,,Clermont-Ferrand Laschamps Moreno,45.74078512,2.965278643,1,1,
PDVE,,Clermont-Ferrand Pardon 13 Vents,45.7195403,2.997942585,1,1,
CHTA,,Clermont-Ferrand Chantagret,45.80484878,3.248552101,1,1,
SQSA,,Clermont-Ferrand Square Sabourin,45.79450046,3.052732068,1,1,
COEX,,Clermont-Ferrand Collège St Exupéry,45.77016854,3.187054413,1,1,
LEGR,,Clermont-Ferrand Le Gressigny,45.78862421,3.019078392,1,1,
LGRM,,Clermont-Ferrand Le Gressigny Micoline,45.790397,3.022312018,1,1,
LTOI,,"Clermont-Ferrand L'Etoilerie",45.79336715,3.0272484,1,1,
SACN,,Clermont-Ferrand Sarcenat,45.797314,3.029829388,1,1,
TRSG,,Clermont-Ferrand Ternant Sagnola,45.8055593,3.014856595,1,1,
TERD,,Clermont-Ferrand Ternant Rte de Durtol,45.80753372,3.011734503,1,1,
TEBG,,Clermont-Ferrand Ternant Bourg,45.80719344,3.007888216,1,1,
TRRC,,Clermont-Ferrand Ternant Rte de la Croix,45.80952304,3.007754105,1,1,
FTBE,,Clermont-Ferrand Fontaine du Berger,45.79978519,2.991971987,1,1,
LAFM,,"Clermont-Ferrand La Font de l'Arbre Rte de Montrodeix",45.7679506,3.005707318,1,1,
MTRX,,Clermont-Ferrand Montrodeix,45.7641101,3.005200642,1,1,
SGNJ,,Clermont-Ferrand Solagnat Les Jardets,45.7625458,3.014835137,1,1,
SOLG,,Clermont-Ferrand Solagnat,45.76472383,3.017190116,1,1,
LCRD,,Clermont-Ferrand Le Cheix Rte des Dômes,45.77200578,3.020113724,1,1,
VIPL,,Clermont-Ferrand Villars Pierre Levée,45.7773046,3.031783168,1,1,
LYPB,,Clermont-Ferrand Lycée Pierre Boulanger,45.79081619,3.245585578,1,1,
SZEC,,Clermont-Ferrand Saulzet École,45.71380016,3.068790416,1,1,
1970483750764879,,Malintrat Charrots,45.81635469,3.188825421,1,1,
